[{"facility_id":"1000001","latitude":48.828707,"longitude":-122.685533,"frs_id":"110000490166.0","facility_name":"PSE Ferndale Generating Station","state":"WA","state_name":"Washington","region":"Pacific","region_group":"West","year":2018,"emissions_mt":302529},{"facility_id":"1000033","latitude":34.05845,"longitude":-117.775114,"frs_id":"110028036033.0","facility_name":"San Gabriel Cogeneration Facility","state":"CA","state_name":"California","region":"Pacific","region_group":"West","year":2018,"emissions_mt":0},{"facility_id":"1000049","latitude":44.1212,"longitude":-103.2608,"frs_id":"110028229030.0","facility_name":"Lange","state":"SD","state_name":"South Dakota","region":"West North Central","region_group":"Midwest","year":2018,"emissions_mt":5929},{"facility_id":"1000050","latitude":44.2862,"longitude":-105.3843,"frs_id":"110041417829.0","facility_name":"Wygen I","state":"WY","state_name":"Wyoming","region":"Mountain","region_group":"West","year":2018,"emissions_mt":757847},{"facility_id":"1000051","latitude":37.7965,"longitude":-121.6049,"frs_id":"110055697107.0","facility_name":"Mariposa Energy, LLC","state":"CA","state_name":"California","region":"Pacific","region_group":"West","year":2018,"emissions_mt":65311},{"facility_id":"1000052","latitude":33.3451,"longitude":-112.8638,"frs_id":"110012547431.0","facility_name":"Mesquite Generating Station","state":"AZ","state_name":"Arizona","region":"Mountain","region_group":"West","year":2018,"emissions_mt":2281560},{"facility_id":"1000059","latitude":34.6831,"longitude":-95.9349,"frs_id":"110021355816.0","facility_name":"Tenaska Kiamichi Generating Station","state":"OK","state_name":"Oklahoma","region":"West South Central","region_group":"South","year":2018,"emissions_mt":2182583},{"facility_id":"1000060","latitude":39.2038,"longitude":-103.7005,"frs_id":"110022515777.0","facility_name":"Limon Generating Station","state":"CO","state_name":"Colorado","region":"Mountain","region_group":"West","year":2018,"emissions_mt":26176},{"facility_id":"1000061","latitude":39.9414,"longitude":-104.6817,"frs_id":"110006657885.0","facility_name":"Frank Knutson Station","state":"CO","state_name":"Colorado","region":"Mountain","region_group":"West","year":2018,"emissions_mt":27787},{"facility_id":"1000068","latitude":36.4178,"longitude":-114.9622,"frs_id":"110070081751.0","facility_name":"Apex Generating Station","state":"NV","state_name":"Nevada","region":"Mountain","region_group":"West","year":2018,"emissions_mt":858789},{"facility_id":"1000069","latitude":41.4486,"longitude":-72.8358,"frs_id":"110006547870.0","facility_name":"Wallingford Energy, LLC","state":"CT","state_name":"Connecticut","region":"New England","region_group":"Northeast","year":2018,"emissions_mt":76227},{"facility_id":"1000070","latitude":34.5953,"longitude":-117.3647,"frs_id":"110070081752.0","facility_name":"High Desert Power Project","state":"CA","state_name":"California","region":"Pacific","region_group":"West","year":2018,"emissions_mt":1219415},{"facility_id":"1000071","latitude":39.738,"longitude":-76.3072,"frs_id":"110043196528.0","facility_name":"York Energy Center","state":"PA","state_name":"Pennsylvania","region":"Middle Atlantic","region_group":"Northeast","year":2018,"emissions_mt":811753},{"facility_id":"1000074","latitude":33.1261,"longitude":-117.1172,"frs_id":"110012516134.0","facility_name":"Escondido Energy Center, LLC","state":"CA","state_name":"California","region":"Pacific","region_group":"West","year":2018,"emissions_mt":14372},{"facility_id":"1000076","latitude":42.1727,"longitude":-121.8144,"frs_id":"110006911404.0","facility_name":"Klamath Energy LLC","state":"OR","state_name":"Oregon","region":"Pacific","region_group":"West","year":2018,"emissions_mt":26552},{"facility_id":"1000085","latitude":34.3387,"longitude":-82.8207,"frs_id":"110007250009.0","facility_name":"Hartwell Energy Facility","state":"GA","state_name":"Georgia","region":"South Atlantic","region_group":"South","year":2018,"emissions_mt":123273},{"facility_id":"1000087","latitude":39.1467,"longitude":-75.5461,"frs_id":"110000338910.0","facility_name":"NRG Energy Center Dover","state":"DE","state_name":"Delaware","region":"South Atlantic","region_group":"South","year":2018,"emissions_mt":54800},{"facility_id":"1000088","latitude":38.8856,"longitude":-77.0244,"frs_id":"110002486257.0","facility_name":"GSA Central Heating","state":"DC","state_name":"Washington DC","region":"Middle Atlantic","region_group":"Northeast","year":2018,"emissions_mt":145321},{"facility_id":"1000092","latitude":42.35,"longitude":-71.0583,"frs_id":"110001948046.0","facility_name":"Kneeland Station","state":"MA","state_name":"Massachusetts","region":"New England","region_group":"Northeast","year":2018,"emissions_mt":103941},{"facility_id":"1000095","latitude":40.4481,"longitude":-74.3497,"frs_id":"110021321693.0","facility_name":"Red Oak Power LLC","state":"NJ","state_name":"New Jersey","region":"Middle Atlantic","region_group":"Northeast","year":2018,"emissions_mt":1646926},{"facility_id":"1000096","latitude":41.7181,"longitude":-87.5449,"frs_id":"110012514662.0","facility_name":"Southeast Chicago Energy Project","state":"IL","state_name":"Illinois","region":"East North Central","region_group":"Midwest","year":2018,"emissions_mt":44301},{"facility_id":"1000097","latitude":32.9761,"longitude":-112.694,"frs_id":"110012168901.0","facility_name":"Gila River Power Station","state":"AZ","state_name":"Arizona","region":"Mountain","region_group":"West","year":2018,"emissions_mt":3679306},{"facility_id":"1000098","latitude":33.0583,"longitude":-97.9103,"frs_id":"110015743383.0","facility_name":"Wise County Power Company, LLC","state":"TX","state_name":"Texas","region":"West South Central","region_group":"South","year":2018,"emissions_mt":428924},{"facility_id":"1000100","latitude":33.4759,"longitude":-113.1133,"frs_id":"110012268768.0","facility_name":"New Harquahala Generating Company, LLC","state":"AZ","state_name":"Arizona","region":"Mountain","region_group":"West","year":2018,"emissions_mt":1983},{"facility_id":"1000101","latitude":42.2728,"longitude":-73.8492,"frs_id":"110019468057.0","facility_name":"Athens Generating Company","state":"NY","state_name":"New York","region":"Middle Atlantic","region_group":"Northeast","year":2018,"emissions_mt":1381328},{"facility_id":"1000102","latitude":35.2097,"longitude":-119.585,"frs_id":"110013729251.0","facility_name":"Sunrise Power Company","state":"CA","state_name":"California","region":"Pacific","region_group":"West","year":2018,"emissions_mt":1008956},{"facility_id":"1000106","latitude":39.5314,"longitude":-81.7172,"frs_id":"110017747205.0","facility_name":"Waterford Plant","state":"OH","state_name":"Ohio","region":"East North Central","region_group":"Midwest","year":2018,"emissions_mt":2344965},{"facility_id":"1000107","latitude":28.0525,"longitude":-81.8083,"frs_id":"110012174627.0","facility_name":"Osprey Energy Center","state":"FL","state_name":"Florida","region":"South Atlantic","region_group":"South","year":2018,"emissions_mt":784590},{"facility_id":"1000108","latitude":40.7168,"longitude":-73.9665,"frs_id":"110012158707.0","facility_name":"North 1st","state":"NY","state_name":"New York","region":"Middle Atlantic","region_group":"Northeast","year":2018,"emissions_mt":31070},{"facility_id":"1000109","latitude":41.4297,"longitude":-82.2633,"frs_id":"110004588875.0","facility_name":"West Lorain","state":"OH","state_name":"Ohio","region":"East North Central","region_group":"Midwest","year":2018,"emissions_mt":46572},{"facility_id":"1000110","latitude":27.6417,"longitude":-81.9625,"frs_id":"110035803262.0","facility_name":"Midulla Generating Station","state":"FL","state_name":"Florida","region":"South Atlantic","region_group":"South","year":2018,"emissions_mt":1490801},{"facility_id":"1000111","latitude":40.7539,"longitude":-73.9506,"frs_id":"110012158734.0","facility_name":"Vernon Boulevard","state":"NY","state_name":"New York","region":"Middle Atlantic","region_group":"Northeast","year":2018,"emissions_mt":35222},{"facility_id":"1000112","latitude":40.663,"longitude":-74.0,"frs_id":"110019827286.0","facility_name":"23rd and 3rd","state":"NY","state_name":"New York","region":"Middle Atlantic","region_group":"Northeast","year":2018,"emissions_mt":70705},{"facility_id":"1000113","latitude":40.6188,"longitude":-74.069,"frs_id":"110028050230.0","facility_name":"Pouch Terminal","state":"NY","state_name":"New York","region":"Middle Atlantic","region_group":"Northeast","year":2018,"emissions_mt":34950},{"facility_id":"1000114","latitude":40.787,"longitude":-73.2933,"frs_id":"110015378731.0","facility_name":"Brentwood","state":"NY","state_name":"New York","region":"Middle Atlantic","region_group":"Northeast","year":2018,"emissions_mt":32709},{"facility_id":"1000115","latitude":28.1289,"longitude":-81.0978,"frs_id":"110007007951.0","facility_name":"Osceola","state":"FL","state_name":"Florida","region":"South Atlantic","region_group":"South","year":2018,"emissions_mt":0},{"facility_id":"1000116","latitude":40.7989,"longitude":-73.9147,"frs_id":"110043806548.0","facility_name":"Harlem River Yard","state":"NY","state_name":"New York","region":"Middle Atlantic","region_group":"Northeast","year":2018,"emissions_mt":24312},{"facility_id":"1000117","latitude":40.6663,"longitude":-112.031,"frs_id":"110028042767.0","facility_name":"West Valley Power, LLC","state":"UT","state_name":"Utah","region":"Mountain","region_group":"West","year":2018,"emissions_mt":127158},{"facility_id":"1000118","latitude":47.5444,"longitude":-95.1297,"frs_id":"110038098769.0","facility_name":"Solway Plant","state":"MN","state_name":"Minnesota","region":"West North Central","region_group":"Midwest","year":2018,"emissions_mt":38217},{"facility_id":"1000119","latitude":38.8003,"longitude":-86.4511,"frs_id":"110012514476.0","facility_name":"Hoosier Energy Lawrence Co Station","state":"IN","state_name":"Indiana","region":"East North Central","region_group":"Midwest","year":2018,"emissions_mt":83205},{"facility_id":"1000120","latitude":43.1794,"longitude":-115.7328,"frs_id":"110012152053.0","facility_name":"Evander Andrews Power Complex","state":"ID","state_name":"Idaho","region":"Mountain","region_group":"West","year":2018,"emissions_mt":74588},{"facility_id":"1000121","latitude":39.2798,"longitude":-75.6246,"frs_id":"110021346792.0","facility_name":"Warren F. Sam Beasley Pwr Station","state":"DE","state_name":"Delaware","region":"South Atlantic","region_group":"South","year":2018,"emissions_mt":19661},{"facility_id":"1000122","latitude":36.225,"longitude":-121.1278,"frs_id":"110000529376.0","facility_name":"Gilroy Energy Center, LLC for King City","state":"CA","state_name":"California","region":"Pacific","region_group":"West","year":2018,"emissions_mt":5454},{"facility_id":"1000123","latitude":39.1365,"longitude":-121.6397,"frs_id":"110000524969.0","facility_name":"Yuba City Energy Center","state":"CA","state_name":"California","region":"Pacific","region_group":"West","year":2018,"emissions_mt":19871},{"facility_id":"1000125","latitude":33.3806,"longitude":-89.2039,"frs_id":"110024408256.0","facility_name":"Ackerman Combined Cycle","state":"MS","state_name":"Mississippi","region":"East South Central","region_group":"South","year":2018,"emissions_mt":1238248},{"facility_id":"1000127","latitude":40.6175,"longitude":-75.3147,"frs_id":"110012565884.0","facility_name":"Bethlehem Power Plant","state":"PA","state_name":"Pennsylvania","region":"Middle Atlantic","region_group":"Northeast","year":2018,"emissions_mt":1822022},{"facility_id":"1000128","latitude":33.9114,"longitude":-116.5533,"frs_id":"110015634642.0","facility_name":"Indigo Generation Facility","state":"CA","state_name":"California","region":"Pacific","region_group":"West","year":2018,"emissions_mt":19322},{"facility_id":"1000130","latitude":36.2689,"longitude":-119.6469,"frs_id":"110040966078.0","facility_name":"Hanford Energy Park Peaker","state":"CA","state_name":"California","region":"Pacific","region_group":"West","year":2018,"emissions_mt":9841},{"facility_id":"1000131","latitude":40.6106,"longitude":-73.7614,"frs_id":"110019673441.0","facility_name":"Bayswater Peaking Facility","state":"NY","state_name":"New York","region":"Middle Atlantic","region_group":"Northeast","year":2018,"emissions_mt":94891},{"facility_id":"1000132","latitude":40.7864,"longitude":-73.9133,"frs_id":"110019738015.0","facility_name":"Astoria Gas Turbine Power","state":"NY","state_name":"New York","region":"Middle Atlantic","region_group":"Northeast","year":2018,"emissions_mt":29577},{"facility_id":"1000133","latitude":34.9556,"longitude":-118.844,"frs_id":"110012236507.0","facility_name":"Pastoria Energy Facility","state":"CA","state_name":"California","region":"Pacific","region_group":"West","year":2018,"emissions_mt":1672517},{"facility_id":"1000135","latitude":41.4426,"longitude":-87.7515,"frs_id":"110015743800.0","facility_name":"LSP University Park, LLC","state":"IL","state_name":"Illinois","region":"East North Central","region_group":"Midwest","year":2018,"emissions_mt":344804},{"facility_id":"1000136","latitude":42.5835,"longitude":-89.0351,"frs_id":"110013294087.0","facility_name":"Riverside Energy Center","state":"WI","state_name":"Wisonsin","region":"East North Central","region_group":"Midwest","year":2018,"emissions_mt":1196411},{"facility_id":"1000138","latitude":39.0913,"longitude":-84.8667,"frs_id":"110006764171.0","facility_name":"Lawrenceburg Energy Facility","state":"IN","state_name":"Indiana","region":"East North Central","region_group":"Midwest","year":2018,"emissions_mt":2832859},{"facility_id":"1000141","latitude":39.7436,"longitude":-104.68,"frs_id":"110031381109.0","facility_name":"Blue Spruce Energy Center","state":"CO","state_name":"Colorado","region":"Mountain","region_group":"West","year":2018,"emissions_mt":150881},{"facility_id":"1000144","latitude":46.6226,"longitude":-122.9145,"frs_id":"110055650371.0","facility_name":"Chehalis Generation Facility","state":"WA","state_name":"Washington","region":"Pacific","region_group":"West","year":2018,"emissions_mt":694176},{"facility_id":"1000145","latitude":32.3958,"longitude":-94.4361,"frs_id":"110014433728.0","facility_name":"Harrison County Power Project","state":"TX","state_name":"Texas","region":"West South Central","region_group":"South","year":2018,"emissions_mt":622218},{"facility_id":"1000146","latitude":40.8011,"longitude":-75.105,"frs_id":"110017810662.0","facility_name":"Lower Mount Bethel Energy, LLC","state":"PA","state_name":"Pennsylvania","region":"Middle Atlantic","region_group":"Northeast","year":2018,"emissions_mt":1565222},{"facility_id":"1000147","latitude":32.5672,"longitude":-116.9444,"frs_id":"110065165662.0","facility_name":"Larkspur Energy Faciity","state":"CA","state_name":"California","region":"Pacific","region_group":"West","year":2018,"emissions_mt":25001},{"facility_id":"1000148","latitude":39.8668,"longitude":-77.6859,"frs_id":"110012215913.0","facility_name":"Chambersburg Units 12 & 13","state":"PA","state_name":"Pennsylvania","region":"Middle Atlantic","region_group":"Northeast","year":2018,"emissions_mt":87761},{"facility_id":"1000149","latitude":47.5314,"longitude":-90.9111,"frs_id":"110006367172.0","facility_name":"Taconite Harbor Energy Center","state":"MN","state_name":"Minnesota","region":"West North Central","region_group":"Midwest","year":2018,"emissions_mt":11},{"facility_id":"1000150","latitude":36.3853,"longitude":-114.9228,"frs_id":"110024419244.0","facility_name":"Chuck Lenzie Generating Station","state":"NV","state_name":"Nevada","region":"Mountain","region_group":"West","year":2018,"emissions_mt":2682213},{"facility_id":"1000151","latitude":39.3531,"longitude":-91.2295,"frs_id":"110017994376.0","facility_name":"Peno Creek Energy Center","state":"MO","state_name":"Missouri","region":"West North Central","region_group":"Midwest","year":2018,"emissions_mt":55178},{"facility_id":"1000152","latitude":34.183,"longitude":-90.5621,"frs_id":"110013395003.0","facility_name":"Crossroads Energy Center (CPU)","state":"MS","state_name":"Mississippi","region":"East South Central","region_group":"South","year":2018,"emissions_mt":51139},{"facility_id":"1000153","latitude":38.5731,"longitude":-82.7833,"frs_id":"110044905216.0","facility_name":"Dynegy Hanging Rock, II LLC","state":"OH","state_name":"Ohio","region":"East North Central","region_group":"Midwest","year":2018,"emissions_mt":3603889},{"facility_id":"1000157","latitude":45.7578,"longitude":-107.6,"frs_id":"110038363623.0","facility_name":"Hardin Generating Station","state":"MT","state_name":"Montana","region":"Mountain","region_group":"West","year":2018,"emissions_mt":208493},{"facility_id":"1000161","latitude":40.5083,"longitude":-122.4253,"frs_id":"110001187876.0","facility_name":"Redding Power Plant","state":"CA","state_name":"California","region":"Pacific","region_group":"West","year":2018,"emissions_mt":112186},{"facility_id":"1000162","latitude":32.3494,"longitude":-108.6975,"frs_id":"110022766096.0","facility_name":"Lordsburg Generating Station","state":"NM","state_name":"New Mexico","region":"Mountain","region_group":"West","year":2018,"emissions_mt":3261},{"facility_id":"1000163","latitude":35.1597,"longitude":-81.4306,"frs_id":"110010431648.0","facility_name":"Mill Creek Combustion Turbine Sta","state":"SC","state_name":"South Carolina","region":"South Atlantic","region_group":"South","year":2018,"emissions_mt":138364},{"facility_id":"1000168","latitude":39.5798,"longitude":-81.6571,"frs_id":"110040566633.0","facility_name":"Dynegy Energy Washington II, LLC","state":"OH","state_name":"Ohio","region":"East North Central","region_group":"Midwest","year":2018,"emissions_mt":1795889},{"facility_id":"1000169","latitude":38.6996,"longitude":-88.5392,"frs_id":"110007399396.0","facility_name":"Raccoon Creek Power Plant","state":"IL","state_name":"Illinois","region":"East North Central","region_group":"Midwest","year":2018,"emissions_mt":6264},{"facility_id":"1000170","latitude":43.1047,"longitude":-70.8044,"frs_id":"110021167011.0","facility_name":"Newington Energy","state":"NH","state_name":"New Hampshire","region":"New England","region_group":"Northeast","year":2018,"emissions_mt":339087},{"facility_id":"1000171","latitude":33.2881,"longitude":-89.4201,"frs_id":"110014338537.0","facility_name":"Choctaw County Gen","state":"MS","state_name":"Mississippi","region":"East South Central","region_group":"South","year":2018,"emissions_mt":1944048},{"facility_id":"1000173","latitude":42.774,"longitude":-82.4818,"frs_id":"110015836069.0","facility_name":"DTE East China","state":"MI","state_name":"Michigan","region":"East North Central","region_group":"Midwest","year":2018,"emissions_mt":174809},{"facility_id":"1000174","latitude":37.1753,"longitude":-81.9617,"frs_id":"110022531606.0","facility_name":"Buchanan Units 1 & 2","state":"VA","state_name":"Virginia","region":"South Atlantic","region_group":"South","year":2018,"emissions_mt":100274},{"facility_id":"1000175","latitude":37.425,"longitude":-121.9319,"frs_id":"110013666425.0","facility_name":"Los Esteros Critical Energy Fac","state":"CA","state_name":"California","region":"Pacific","region_group":"West","year":2018,"emissions_mt":161622},{"facility_id":"1000181","latitude":32.2363,"longitude":-108.5494,"frs_id":"110014356990.0","facility_name":"Pyramid Generating Station","state":"NM","state_name":"New Mexico","region":"Mountain","region_group":"West","year":2018,"emissions_mt":37207},{"facility_id":"1000182","latitude":44.6889,"longitude":-85.2019,"frs_id":"110028028088.0","facility_name":"Kalkaska Ct Project #1","state":"MI","state_name":"Michigan","region":"East North Central","region_group":"Midwest","year":2018,"emissions_mt":22920},{"facility_id":"1000185","latitude":34.4304,"longitude":-92.8333,"frs_id":"110015663735.0","facility_name":"Magnet Cove Generating Station","state":"AR","state_name":"Arkansas","region":"West South Central","region_group":"South","year":2018,"emissions_mt":699990},{"facility_id":"1000190","latitude":31.6004,"longitude":-89.9468,"frs_id":"110011385571.0","facility_name":"Silver Creek Generating Plant","state":"MS","state_name":"Mississippi","region":"East South Central","region_group":"South","year":2018,"emissions_mt":92561},{"facility_id":"1000192","latitude":38.5583,"longitude":-90.8361,"frs_id":"110000440470.0","facility_name":"Labadie","state":"MO","state_name":"Missouri","region":"West North Central","region_group":"Midwest","year":2018,"emissions_mt":14846788},{"facility_id":"1000203","latitude":43.7984,"longitude":-94.8415,"frs_id":"110008694975.0","facility_name":"Lakefield Junction Generating","state":"MN","state_name":"Minnesota","region":"West North Central","region_group":"Midwest","year":2018,"emissions_mt":103042},{"facility_id":"1000207","latitude":46.9688,"longitude":-123.48,"frs_id":"110012561021.0","facility_name":"Grays Harbor Energy Center","state":"WA","state_name":"Washington","region":"Pacific","region_group":"West","year":2018,"emissions_mt":975859},{"facility_id":"1000211","latitude":45.2958,"longitude":-93.5542,"frs_id":"110017390839.0","facility_name":"Elk River","state":"MN","state_name":"Minnesota","region":"West North Central","region_group":"Midwest","year":2018,"emissions_mt":147639},{"facility_id":"1000219","latitude":43.8298,"longitude":-91.26,"frs_id":"110000422524.0","facility_name":"French Island","state":"WI","state_name":"Wisonsin","region":"East North Central","region_group":"Midwest","year":2018,"emissions_mt":33453},{"facility_id":"1000222","latitude":42.167,"longitude":-83.5318,"frs_id":"110017414172.0","facility_name":"Sumpter Plant","state":"MI","state_name":"Michigan","region":"East North Central","region_group":"Midwest","year":2018,"emissions_mt":275545},{"facility_id":"1000223","latitude":41.5563,"longitude":-93.5283,"frs_id":"110014336806.0","facility_name":"Greater Des Moines Energy Center","state":"IA","state_name":"Iowa","region":"West North Central","region_group":"Midwest","year":2018,"emissions_mt":255427},{"facility_id":"1000225","latitude":33.9444,"longitude":-78.0125,"frs_id":"110043787783.0","facility_name":"CPI USA North Carolina Southport","state":"NC","state_name":"North Carolina","region":"South Atlantic","region_group":"South","year":2018,"emissions_mt":381133},{"facility_id":"1000226","latitude":36.435,"longitude":-78.9619,"frs_id":"110000347045.0","facility_name":"CPI USA North Carolina Roxboro","state":"NC","state_name":"North Carolina","region":"South Atlantic","region_group":"South","year":2018,"emissions_mt":221992},{"facility_id":"1000231","latitude":36.0378,"longitude":-77.7542,"frs_id":"110022568531.0","facility_name":"Edgecombe Genco, LLC","state":"NC","state_name":"North Carolina","region":"South Atlantic","region_group":"South","year":2018,"emissions_mt":160697},{"facility_id":"1000236","latitude":41.6317,"longitude":-87.1728,"frs_id":"110006010583.0","facility_name":"Portside Energy","state":"IN","state_name":"Indiana","region":"East North Central","region_group":"Midwest","year":2018,"emissions_mt":212332},{"facility_id":"1000237","latitude":32.9285,"longitude":-111.5899,"frs_id":"110013372974.0","facility_name":"Sundance Power Plant","state":"AZ","state_name":"Arizona","region":"Mountain","region_group":"West","year":2018,"emissions_mt":229367},{"facility_id":"1000241","latitude":33.3544,"longitude":-111.9364,"frs_id":"110009523319.0","facility_name":"Kyrene Generating Station","state":"AZ","state_name":"Arizona","region":"Mountain","region_group":"West","year":2018,"emissions_mt":331106},{"facility_id":"1000244","latitude":43.147,"longitude":-115.6671,"frs_id":"110013329558.0","facility_name":"Bennett Mountain Power Project","state":"ID","state_name":"Idaho","region":"Mountain","region_group":"West","year":2018,"emissions_mt":89057},{"facility_id":"1000246","latitude":39.7281,"longitude":-84.2103,"frs_id":"110005972224.0","facility_name":"Frank M Tait Station","state":"OH","state_name":"Ohio","region":"East North Central","region_group":"Midwest","year":2018,"emissions_mt":109858},{"facility_id":"1000249","latitude":43.0751,"longitude":-89.4251,"frs_id":"110022398369.0","facility_name":"West Campus Cogeneration Facility","state":"WI","state_name":"Wisonsin","region":"East North Central","region_group":"Midwest","year":2018,"emissions_mt":192168},{"facility_id":"1000250","latitude":33.3333,"longitude":-111.751,"frs_id":"110001697049.0","facility_name":"Santan","state":"AZ","state_name":"Arizona","region":"Mountain","region_group":"West","year":2018,"emissions_mt":1546301},{"facility_id":"1000251","latitude":39.5611,"longitude":-80.1642,"frs_id":"110007881998.0","facility_name":"Grant Town Power Plant","state":"WV","state_name":"West Virginia","region":"South Atlantic","region_group":"South","year":2018,"emissions_mt":955154},{"facility_id":"1000252","latitude":37.2939,"longitude":-77.2697,"frs_id":"110000740422.0","facility_name":"City Point Energy Center","state":"VA","state_name":"Virginia","region":"South Atlantic","region_group":"South","year":2018,"emissions_mt":469892},{"facility_id":"1000253","latitude":39.6397,"longitude":-79.9606,"frs_id":"110000344903.0","facility_name":"Morgantown Energy Facility","state":"WV","state_name":"West Virginia","region":"South Atlantic","region_group":"South","year":2018,"emissions_mt":609582},{"facility_id":"1000255","latitude":29.8169,"longitude":-95.1086,"frs_id":"110002400731.0","facility_name":"Optim Energy Altura Cogen, LLC","state":"TX","state_name":"Texas","region":"West South Central","region_group":"South","year":2018,"emissions_mt":1929685},{"facility_id":"1000257","latitude":36.6009,"longitude":-78.53,"frs_id":"110000342772.0","facility_name":"Mecklenburg Power Station","state":"VA","state_name":"Virginia","region":"South Atlantic","region_group":"South","year":2018,"emissions_mt":68689},{"facility_id":"1000259","latitude":38.2667,"longitude":-77.3147,"frs_id":"110000542743.0","facility_name":"Birchwood Power Facility","state":"VA","state_name":"Virginia","region":"South Atlantic","region_group":"South","year":2018,"emissions_mt":562956},{"facility_id":"1000263","latitude":38.1245,"longitude":-78.2031,"frs_id":"110000341489.0","facility_name":"Gordonsville Power Station","state":"VA","state_name":"Virginia","region":"South Atlantic","region_group":"South","year":2018,"emissions_mt":389818},{"facility_id":"1000264","latitude":40.1083,"longitude":-88.5986,"frs_id":"110043795275.0","facility_name":"Goose Creek Power Plant","state":"IL","state_name":"Illinois","region":"East North Central","region_group":"Midwest","year":2018,"emissions_mt":22957},{"facility_id":"1000265","latitude":39.8592,"longitude":-79.9182,"frs_id":"110017805730.0","facility_name":"Dynegy Energy Fayette, II LLC","state":"PA","state_name":"Pennsylvania","region":"Middle Atlantic","region_group":"Northeast","year":2018,"emissions_mt":1774704},{"facility_id":"1000267","latitude":40.7861,"longitude":-73.2931,"frs_id":"110014360057.0","facility_name":"Edgewood Energy","state":"NY","state_name":"New York","region":"Middle Atlantic","region_group":"Northeast","year":2018,"emissions_mt":61781},{"facility_id":"1000268","latitude":40.9572,"longitude":-72.8664,"frs_id":"110012589902.0","facility_name":"Shoreham Energy","state":"NY","state_name":"New York","region":"Middle Atlantic","region_group":"Northeast","year":2018,"emissions_mt":5811},{"facility_id":"1000269","latitude":39.8083,"longitude":-75.4225,"frs_id":"110040907212.0","facility_name":"Marcus Hook Energy Center - MH750","state":"PA","state_name":"Pennsylvania","region":"Middle Atlantic","region_group":"Northeast","year":2018,"emissions_mt":1599563},{"facility_id":"1000270","latitude":34.6063,"longitude":-106.732,"frs_id":"110022706008.0","facility_name":"Valencia Power Plant","state":"NM","state_name":"New Mexico","region":"Mountain","region_group":"West","year":2018,"emissions_mt":62537},{"facility_id":"1000271","latitude":40.0911,"longitude":-104.5947,"frs_id":"110017766719.0","facility_name":"Rocky Mountain Energy Center","state":"CO","state_name":"Colorado","region":"Mountain","region_group":"West","year":2018,"emissions_mt":1075815},{"facility_id":"1000277","latitude":32.3592,"longitude":-81.1236,"frs_id":"110020013590.0","facility_name":"Jasper County Generating Facility","state":"SC","state_name":"South Carolina","region":"South Atlantic","region_group":"South","year":2018,"emissions_mt":1935699},{"facility_id":"1000278","latitude":35.6139,"longitude":-115.3561,"frs_id":"110027833441.0","facility_name":"Walter M. Higgins III Generating Station","state":"NV","state_name":"Nevada","region":"Mountain","region_group":"West","year":2018,"emissions_mt":916958},{"facility_id":"1000282","latitude":37.0467,"longitude":-88.3506,"frs_id":"110003256066.0","facility_name":"DTE Calvert City, LLC","state":"KY","state_name":"Kentucky","region":"East South Central","region_group":"South","year":2018,"emissions_mt":199128},{"facility_id":"1000283","latitude":36.2397,"longitude":-119.9044,"frs_id":"110015375556.0","facility_name":"Henrietta Peaker Plant","state":"CA","state_name":"California","region":"Pacific","region_group":"West","year":2018,"emissions_mt":18615},{"facility_id":"1000284","latitude":40.3286,"longitude":-96.8067,"frs_id":"110012147747.0","facility_name":"Beatrice","state":"NE","state_name":"Nebraska","region":"West North Central","region_group":"Midwest","year":2018,"emissions_mt":211107},{"facility_id":"1000288","latitude":40.6447,"longitude":-73.5683,"frs_id":"110019162671.0","facility_name":"Freeport Power Plant No. 2","state":"NY","state_name":"New York","region":"Middle Atlantic","region_group":"Northeast","year":2018,"emissions_mt":24253},{"facility_id":"1000295","latitude":37.4556,"longitude":-77.4308,"frs_id":"110000868865.0","facility_name":"Spruance Genco, LLC","state":"VA","state_name":"Virginia","region":"South Atlantic","region_group":"South","year":2018,"emissions_mt":443708},{"facility_id":"1000298","latitude":31.9842,"longitude":-89.4131,"frs_id":"110015713450.0","facility_name":"Sylvarena Generating Plant","state":"MS","state_name":"Mississippi","region":"East South Central","region_group":"South","year":2018,"emissions_mt":138324},{"facility_id":"1000300","latitude":36.999,"longitude":-121.5363,"frs_id":"110001151324.0","facility_name":"Gilroy Energy Center, LLC","state":"CA","state_name":"California","region":"Pacific","region_group":"West","year":2018,"emissions_mt":16365},{"facility_id":"1000301","latitude":47.0864,"longitude":-122.3644,"frs_id":"110005307284.0","facility_name":"Frederickson Power LP","state":"WA","state_name":"Washington","region":"Pacific","region_group":"West","year":2018,"emissions_mt":270097},{"facility_id":"1000302","latitude":37.1575,"longitude":-76.6911,"frs_id":"110001888459.0","facility_name":"Gravel Neck Combustion Turbine","state":"VA","state_name":"Virginia","region":"South Atlantic","region_group":"South","year":2018,"emissions_mt":69355},{"facility_id":"1000303","latitude":37.4978,"longitude":-77.368,"frs_id":"110064332262.0","facility_name":"Darbytown Combustion Turbine","state":"VA","state_name":"Virginia","region":"South Atlantic","region_group":"South","year":2018,"emissions_mt":65977},{"facility_id":"1000310","latitude":37.3767,"longitude":-121.9508,"frs_id":"110035420979.0","facility_name":"Donald Von Raesfeld","state":"CA","state_name":"California","region":"Pacific","region_group":"West","year":2018,"emissions_mt":369256},{"facility_id":"1000312","latitude":36.7743,"longitude":-76.3119,"frs_id":"110001890053.0","facility_name":"Elizabeth River Combustion Turbine Sta","state":"VA","state_name":"Virginia","region":"South Atlantic","region_group":"South","year":2018,"emissions_mt":174740},{"facility_id":"1000317","latitude":43.094,"longitude":-93.2922,"frs_id":"110015656388.0","facility_name":"Emery Station","state":"IA","state_name":"Iowa","region":"West North Central","region_group":"Midwest","year":2018,"emissions_mt":1125571},{"facility_id":"1000318","latitude":37.2914,"longitude":-77.2821,"frs_id":"110000342610.0","facility_name":"Hopewell Cogeneration Facility","state":"VA","state_name":"Virginia","region":"South Atlantic","region_group":"South","year":2018,"emissions_mt":739497},{"facility_id":"1000323","latitude":38.3383,"longitude":-121.1239,"frs_id":"110024286075.0","facility_name":"Cosumnes Power Plant","state":"CA","state_name":"California","region":"Pacific","region_group":"West","year":2018,"emissions_mt":1281995},{"facility_id":"1000340","latitude":37.2103,"longitude":-88.8606,"frs_id":"110043786249.0","facility_name":"Joppa Steam","state":"IL","state_name":"Illinois","region":"East North Central","region_group":"Midwest","year":2018,"emissions_mt":5088606},{"facility_id":"1000347","latitude":43.5861,"longitude":-84.2242,"frs_id":"110017405093.0","facility_name":"Midland Cogeneration Venture","state":"MI","state_name":"Michigan","region":"East North Central","region_group":"Midwest","year":2018,"emissions_mt":3818655},{"facility_id":"1000364","latitude":32.6017,"longitude":-87.7811,"frs_id":"110000608398.0","facility_name":"Greene County","state":"AL","state_name":"Alabama","region":"East South Central","region_group":"South","year":2018,"emissions_mt":701169},{"facility_id":"1000373","latitude":40.0606,"longitude":-74.1672,"frs_id":"110015375280.0","facility_name":"Ocean Peaking Power, LP","state":"NJ","state_name":"New Jersey","region":"Middle Atlantic","region_group":"Northeast","year":2018,"emissions_mt":143514},{"facility_id":"1000375","latitude":33.0583,"longitude":-94.844,"frs_id":"110013349947.0","facility_name":"Welsh Power Plant","state":"TX","state_name":"Texas","region":"West South Central","region_group":"South","year":2018,"emissions_mt":5912780},{"facility_id":"1000395","latitude":33.6039,"longitude":-101.8408,"frs_id":"110028042302.0","facility_name":"J Robert Massengale Generating Station","state":"TX","state_name":"Texas","region":"West South Central","region_group":"South","year":2018,"emissions_mt":82449},{"facility_id":"1000398","latitude":30.7478,"longitude":-88.0575,"frs_id":"110025378614.0","facility_name":"Hog Bayou Energy Center","state":"AL","state_name":"Alabama","region":"East South Central","region_group":"South","year":2018,"emissions_mt":461828},{"facility_id":"1000402","latitude":29.6397,"longitude":-82.3486,"frs_id":"110008313725.0","facility_name":"University of Florida Cogeneration Plant","state":"FL","state_name":"Florida","region":"South Atlantic","region_group":"South","year":2018,"emissions_mt":188749},{"facility_id":"1000404","latitude":36.4078,"longitude":-114.9603,"frs_id":"110027827207.0","facility_name":"Silverhawk","state":"NV","state_name":"Nevada","region":"Mountain","region_group":"West","year":2018,"emissions_mt":634813},{"facility_id":"1000410","latitude":33.1192,"longitude":-117.118,"frs_id":"110045402079.0","facility_name":"Palomar Energy Center","state":"CA","state_name":"California","region":"Pacific","region_group":"West","year":2018,"emissions_mt":752157},{"facility_id":"1000412","latitude":36.4525,"longitude":-77.6594,"frs_id":"110001483261.0","facility_name":"Rosemary Power Station","state":"NC","state_name":"North Carolina","region":"South Atlantic","region_group":"South","year":2018,"emissions_mt":20836},{"facility_id":"1000414","latitude":41.5131,"longitude":-94.9189,"frs_id":"110036377266.0","facility_name":"Exira Station","state":"IA","state_name":"Iowa","region":"West North Central","region_group":"Midwest","year":2018,"emissions_mt":48925},{"facility_id":"1000417","latitude":39.5697,"longitude":-90.4362,"frs_id":"110055506411.0","facility_name":"Alsey Station","state":"IL","state_name":"Illinois","region":"East North Central","region_group":"Midwest","year":2018,"emissions_mt":12622},{"facility_id":"1000419","latitude":32.2722,"longitude":-101.4222,"frs_id":"110034338820.0","facility_name":"C. R. Wing Cogeneration Plant","state":"TX","state_name":"Texas","region":"West South Central","region_group":"South","year":2018,"emissions_mt":311754},{"facility_id":"1000420","latitude":40.6447,"longitude":-73.5683,"frs_id":"110019162671.0","facility_name":"Equus Power I","state":"NY","state_name":"New York","region":"Middle Atlantic","region_group":"Northeast","year":2018,"emissions_mt":22405},{"facility_id":"1000421","latitude":44.3204,"longitude":-88.2089,"frs_id":"110023013228.0","facility_name":"Fox Energy Center","state":"WI","state_name":"Wisonsin","region":"East North Central","region_group":"Midwest","year":2018,"emissions_mt":1237611},{"facility_id":"1000423","latitude":34.0414,"longitude":-117.3603,"frs_id":"110028012237.0","facility_name":"Agua Mansa Power","state":"CA","state_name":"California","region":"Pacific","region_group":"West","year":2018,"emissions_mt":4668},{"facility_id":"1000424","latitude":44.7855,"longitude":-93.4315,"frs_id":"110009397535.0","facility_name":"Blue Lake Generating Plant","state":"MN","state_name":"Minnesota","region":"West North Central","region_group":"Midwest","year":2018,"emissions_mt":70723},{"facility_id":"1000431","latitude":33.9106,"longitude":-118.425,"frs_id":"110000520213.0","facility_name":"El Segundo","state":"CA","state_name":"California","region":"Pacific","region_group":"West","year":2018,"emissions_mt":485609},{"facility_id":"1000432","latitude":43.495,"longitude":-76.4508,"frs_id":"110001600009.0","facility_name":"Independence","state":"NY","state_name":"New York","region":"Middle Atlantic","region_group":"Northeast","year":2018,"emissions_mt":2031462},{"facility_id":"1000436","latitude":39.8223,"longitude":-111.894,"frs_id":"110017841601.0","facility_name":"Currant Creek Power Project","state":"UT","state_name":"Utah","region":"Mountain","region_group":"West","year":2018,"emissions_mt":978355},{"facility_id":"1000437","latitude":44.1965,"longitude":-94.0099,"frs_id":"110025213061.0","facility_name":"Mankato Energy Center","state":"MN","state_name":"Minnesota","region":"West North Central","region_group":"Midwest","year":2018,"emissions_mt":220704},{"facility_id":"1000438","latitude":37.7315,"longitude":-121.116,"frs_id":"110024436608.0","facility_name":"Ripon Generation Station","state":"CA","state_name":"California","region":"Pacific","region_group":"West","year":2018,"emissions_mt":15305},{"facility_id":"1000444","latitude":40.0614,"longitude":-111.7294,"frs_id":"110028051523.0","facility_name":"Nebo Power Station","state":"UT","state_name":"Utah","region":"Mountain","region_group":"West","year":2018,"emissions_mt":181230},{"facility_id":"1000445","latitude":43.7519,"longitude":-87.8783,"frs_id":"110018881931.0","facility_name":"Sheboygan Falls Energy Facility","state":"WI","state_name":"Wisonsin","region":"East North Central","region_group":"Midwest","year":2018,"emissions_mt":218203},{"facility_id":"1000446","latitude":40.7458,"longitude":-116.5297,"frs_id":"110039075675.0","facility_name":"TS Power Plant","state":"NV","state_name":"Nevada","region":"Mountain","region_group":"West","year":2018,"emissions_mt":1077651},{"facility_id":"1000447","latitude":32.8769,"longitude":-117.1664,"frs_id":"110000609994.0","facility_name":"Miramar Energy Facility","state":"CA","state_name":"California","region":"Pacific","region_group":"West","year":2018,"emissions_mt":50380},{"facility_id":"1000448","latitude":42.0269,"longitude":-93.5828,"frs_id":"110028014529.0","facility_name":"Dayton Avenue Substation","state":"IA","state_name":"Iowa","region":"West North Central","region_group":"Midwest","year":2018,"emissions_mt":452},{"facility_id":"1000449","latitude":38.6803,"longitude":-94.4824,"frs_id":"110028012004.0","facility_name":"South Harper Peaking Facility","state":"MO","state_name":"Missouri","region":"West North Central","region_group":"Midwest","year":2018,"emissions_mt":27415},{"facility_id":"1000450","latitude":40.8142,"longitude":-72.9403,"frs_id":"110040566893.0","facility_name":"Caithness Long Island Energy Center","state":"NY","state_name":"New York","region":"Middle Atlantic","region_group":"Northeast","year":2018,"emissions_mt":926004},{"facility_id":"1000451","latitude":45.3718,"longitude":-98.1032,"frs_id":"110040566919.0","facility_name":"Groton Generating Station","state":"SD","state_name":"South Dakota","region":"West North Central","region_group":"Midwest","year":2018,"emissions_mt":60515},{"facility_id":"1000453","latitude":37.0001,"longitude":-121.5367,"frs_id":"110001151324.0","facility_name":"Calpine Gilroy Cogen, LP","state":"CA","state_name":"California","region":"Pacific","region_group":"West","year":2018,"emissions_mt":71652},{"facility_id":"1000454","latitude":40.3311,"longitude":-111.7547,"frs_id":"110024830209.0","facility_name":"Lake Side Power Plant","state":"UT","state_name":"Utah","region":"Mountain","region_group":"West","year":2018,"emissions_mt":1938865},{"facility_id":"1000455","latitude":46.1792,"longitude":-123.1717,"frs_id":"110037786465.0","facility_name":"Port Westward","state":"OR","state_name":"Oregon","region":"Pacific","region_group":"West","year":2018,"emissions_mt":1019261},{"facility_id":"1000456","latitude":40.7358,"longitude":-73.3881,"frs_id":"110023138451.0","facility_name":"Pinelawn Power","state":"NY","state_name":"New York","region":"Middle Atlantic","region_group":"Northeast","year":2018,"emissions_mt":76919},{"facility_id":"1000457","latitude":34.1788,"longitude":-118.3153,"frs_id":"110055909227.0","facility_name":"Magnolia","state":"CA","state_name":"California","region":"Pacific","region_group":"West","year":2018,"emissions_mt":608086},{"facility_id":"1000458","latitude":36.6894,"longitude":-119.7399,"frs_id":"110023013406.0","facility_name":"Malaga Power, LLC","state":"CA","state_name":"California","region":"Pacific","region_group":"West","year":2018,"emissions_mt":15701},{"facility_id":"1000459","latitude":34.9708,"longitude":-79.9208,"frs_id":"110040566982.0","facility_name":"NCEMC Anson Plant","state":"NC","state_name":"North Carolina","region":"South Atlantic","region_group":"South","year":2018,"emissions_mt":221141},{"facility_id":"1000460","latitude":32.3478,"longitude":-81.1828,"frs_id":"110028012175.0","facility_name":"McIntosh Combined Cycle Facility","state":"GA","state_name":"Georgia","region":"South Atlantic","region_group":"South","year":2018,"emissions_mt":3416980},{"facility_id":"1000462","latitude":34.8422,"longitude":-79.7367,"frs_id":"110022483258.0","facility_name":"NCEMC Hamlet Plant","state":"NC","state_name":"North Carolina","region":"South Atlantic","region_group":"South","year":2018,"emissions_mt":94088},{"facility_id":"1000463","latitude":36.7164,"longitude":-108.2153,"frs_id":"110027226151.0","facility_name":"Bluffview Power Plant","state":"NM","state_name":"New Mexico","region":"Mountain","region_group":"West","year":2018,"emissions_mt":166488},{"facility_id":"1000464","latitude":37.4878,"longitude":-120.8956,"frs_id":"110023013718.0","facility_name":"Walnut Energy Center","state":"CA","state_name":"California","region":"Pacific","region_group":"West","year":2018,"emissions_mt":554792},{"facility_id":"1000465","latitude":44.2911,"longitude":-105.3815,"frs_id":"110069499279.0","facility_name":"Wygen II","state":"WY","state_name":"Wyoming","region":"Mountain","region_group":"West","year":2018,"emissions_mt":895828},{"facility_id":"1000467","latitude":40.7881,"longitude":-73.9056,"frs_id":"110069998643.0","facility_name":"Poletti 500 MW CC","state":"NY","state_name":"New York","region":"Middle Atlantic","region_group":"Northeast","year":2018,"emissions_mt":876904},{"facility_id":"1000468","latitude":45.601,"longitude":-93.2081,"frs_id":"110028022869.0","facility_name":"Cambridge Station","state":"MN","state_name":"Minnesota","region":"West North Central","region_group":"Midwest","year":2018,"emissions_mt":37309},{"facility_id":"1000469","latitude":33.7393,"longitude":-117.1701,"frs_id":"110030747011.0","facility_name":"Inland Empire Energy Center","state":"CA","state_name":"California","region":"Pacific","region_group":"West","year":2018,"emissions_mt":79388},{"facility_id":"1000470","latitude":32.9748,"longitude":-102.7432,"frs_id":"110070081759.0","facility_name":"Mustang Station Units 4, 5 & 6","state":"TX","state_name":"Texas","region":"West South Central","region_group":"South","year":2018,"emissions_mt":575995},{"facility_id":"1000471","latitude":33.9636,"longitude":-117.4528,"frs_id":"110040565242.0","facility_name":"Riverside Energy Resource Center","state":"CA","state_name":"California","region":"Pacific","region_group":"West","year":2018,"emissions_mt":50784},{"facility_id":"1000472","latitude":33.6968,"longitude":-95.5577,"frs_id":"110028042516.0","facility_name":"Paris Energy Center","state":"TX","state_name":"Texas","region":"West South Central","region_group":"South","year":2018,"emissions_mt":225042},{"facility_id":"1000475","latitude":39.8725,"longitude":-77.1672,"frs_id":"110043798851.0","facility_name":"Hunterstown Combined Cycle","state":"PA","state_name":"Pennsylvania","region":"Middle Atlantic","region_group":"Northeast","year":2018,"emissions_mt":2040799},{"facility_id":"1000481","latitude":31.8414,"longitude":-102.315,"frs_id":"110070081760.0","facility_name":"Quail Run Energy Center","state":"TX","state_name":"Texas","region":"West South Central","region_group":"South","year":2018,"emissions_mt":708532},{"facility_id":"1000482","latitude":44.0361,"longitude":-75.7712,"frs_id":"110008035704.0","facility_name":"ReEnergy Black River LLC","state":"NY","state_name":"New York","region":"Middle Atlantic","region_group":"Northeast","year":2018,"emissions_mt":72777},{"facility_id":"1000483","latitude":29.2878,"longitude":-96.0683,"frs_id":"110040568793.0","facility_name":"Colorado Bend I","state":"TX","state_name":"Texas","region":"West South Central","region_group":"South","year":2018,"emissions_mt":812619},{"facility_id":"1000485","latitude":38.7926,"longitude":-121.3823,"frs_id":"110028038415.0","facility_name":"Roseville Energy Park","state":"CA","state_name":"California","region":"Pacific","region_group":"West","year":2018,"emissions_mt":112304},{"facility_id":"1000486","latitude":40.0914,"longitude":-104.8819,"frs_id":"110027250294.0","facility_name":"Spindle Hill Energy Center","state":"CO","state_name":"Colorado","region":"Mountain","region_group":"West","year":2018,"emissions_mt":199249},{"facility_id":"1000487","latitude":36.1855,"longitude":-94.2841,"frs_id":"110031288185.0","facility_name":"Harry D. Mattison Power Plant","state":"AR","state_name":"Arkansas","region":"West South Central","region_group":"South","year":2018,"emissions_mt":32716},{"facility_id":"1000488","latitude":44.5364,"longitude":-92.9147,"frs_id":"110037417097.0","facility_name":"Cannon Falls Energy Center","state":"MN","state_name":"Minnesota","region":"West North Central","region_group":"Midwest","year":2018,"emissions_mt":71998},{"facility_id":"1000489","latitude":35.0361,"longitude":-114.1594,"frs_id":"110045950583.0","facility_name":"Black Mountain Generating Station","state":"AZ","state_name":"Arizona","region":"Mountain","region_group":"West","year":2018,"emissions_mt":43634},{"facility_id":"1000490","latitude":33.7641,"longitude":-118.2248,"frs_id":"110035420112.0","facility_name":"Long Beach Generating Station","state":"CA","state_name":"California","region":"Pacific","region_group":"West","year":2018,"emissions_mt":21479},{"facility_id":"1000491","latitude":42.8445,"longitude":-87.829,"frs_id":"110064089490.0","facility_name":"Elm Road Generating Station","state":"WI","state_name":"Wisonsin","region":"East North Central","region_group":"Midwest","year":2018,"emissions_mt":7944070},{"facility_id":"1000493","latitude":35.8481,"longitude":-90.7257,"frs_id":"110001699323.0","facility_name":"City Water & Light - City of Jonesboro","state":"AR","state_name":"Arkansas","region":"West South Central","region_group":"South","year":2018,"emissions_mt":28237},{"facility_id":"1000499","latitude":30.5681,"longitude":-97.0614,"frs_id":"110007197853.0","facility_name":"Sandow Station","state":"TX","state_name":"Texas","region":"West South Central","region_group":"South","year":2018,"emissions_mt":268294},{"facility_id":"1000501","latitude":37.6341,"longitude":-122.1326,"frs_id":"110039570540.0","facility_name":"Russell City Energy Company LLC","state":"CA","state_name":"California","region":"Pacific","region_group":"West","year":2018,"emissions_mt":399526},{"facility_id":"1000504","latitude":29.3787,"longitude":-94.944,"frs_id":"110005109710.0","facility_name":"Texas City Cogeneration","state":"TX","state_name":"Texas","region":"West South Central","region_group":"South","year":2018,"emissions_mt":675048},{"facility_id":"1000505","latitude":27.0393,"longitude":-80.5144,"frs_id":"110002394793.0","facility_name":"Indiantown Cogeneration, LP","state":"FL","state_name":"Florida","region":"South Atlantic","region_group":"South","year":2018,"emissions_mt":8108},{"facility_id":"1000510","latitude":44.8864,"longitude":-91.5158,"frs_id":"110007776692.0","facility_name":"Wheaton Generating Plant","state":"WI","state_name":"Wisonsin","region":"East North Central","region_group":"Midwest","year":2018,"emissions_mt":20565},{"facility_id":"1000512","latitude":38.8615,"longitude":-94.2982,"frs_id":"110001449905.0","facility_name":"Greenwood Energy Center","state":"MO","state_name":"Missouri","region":"West North Central","region_group":"Midwest","year":2018,"emissions_mt":19033},{"facility_id":"1000513","latitude":30.2861,"longitude":-93.2917,"frs_id":"110003271049.0","facility_name":"Nelson Industrial Steam Company","state":"LA","state_name":"Louisiana","region":"West South Central","region_group":"South","year":2018,"emissions_mt":1833362},{"facility_id":"1000520","latitude":41.6722,"longitude":-93.6769,"frs_id":"110001766278.0","facility_name":"Sycamore Combustion Turbine","state":"IA","state_name":"Iowa","region":"West North Central","region_group":"Midwest","year":2018,"emissions_mt":6805},{"facility_id":"1000521","latitude":42.4407,"longitude":-92.4205,"frs_id":"110018865682.0","facility_name":"Electrifarm","state":"IA","state_name":"Iowa","region":"West North Central","region_group":"Midwest","year":2018,"emissions_mt":6729},{"facility_id":"1000528","latitude":44.2892,"longitude":-105.3795,"frs_id":"110069499331.0","facility_name":"Wygen III","state":"WY","state_name":"Wyoming","region":"Mountain","region_group":"West","year":2018,"emissions_mt":969300},{"facility_id":"1000529","latitude":29.5808,"longitude":-90.7222,"frs_id":"110001937076.0","facility_name":"Houma","state":"LA","state_name":"Louisiana","region":"West South Central","region_group":"South","year":2018,"emissions_mt":23984},{"facility_id":"1000530","latitude":30.3039,"longitude":-94.2527,"frs_id":"110040575106.0","facility_name":"Hardin County Peaking Facility","state":"TX","state_name":"Texas","region":"West South Central","region_group":"South","year":2018,"emissions_mt":31994},{"facility_id":"1000531","latitude":30.42,"longitude":-95.0114,"frs_id":"110040575099.0","facility_name":"San Jacinto County Peaking Facility","state":"TX","state_name":"Texas","region":"West South Central","region_group":"South","year":2018,"emissions_mt":101010},{"facility_id":"1000534","latitude":44.217,"longitude":-86.2906,"frs_id":"110056958225.0","facility_name":"TES Filer City Station","state":"MI","state_name":"Michigan","region":"East North Central","region_group":"Midwest","year":2018,"emissions_mt":599701},{"facility_id":"1000535","latitude":31.2194,"longitude":-89.3933,"frs_id":"110000377271.0","facility_name":"R D Morrow Senior Generating Plant","state":"MS","state_name":"Mississippi","region":"East South Central","region_group":"South","year":2018,"emissions_mt":140974},{"facility_id":"1000538","latitude":41.5444,"longitude":-73.0416,"frs_id":"110033185915.0","facility_name":"Waterbury Generation","state":"CT","state_name":"Connecticut","region":"New England","region_group":"Northeast","year":2018,"emissions_mt":8203},{"facility_id":"1000539","latitude":35.6626,"longitude":-89.9469,"frs_id":"110033168391.0","facility_name":"Plum Point Energy Station","state":"AR","state_name":"Arkansas","region":"West South Central","region_group":"South","year":2018,"emissions_mt":5187454},{"facility_id":"1000540","latitude":31.7569,"longitude":-106.375,"frs_id":"110005162457.0","facility_name":"Copper Station","state":"TX","state_name":"Texas","region":"West South Central","region_group":"South","year":2018,"emissions_mt":41433},{"facility_id":"1000541","latitude":33.2432,"longitude":-115.498,"frs_id":"110040573732.0","facility_name":"Niland Gas Turbine Plant","state":"CA","state_name":"California","region":"Pacific","region_group":"West","year":2018,"emissions_mt":35693},{"facility_id":"1000542","latitude":30.0253,"longitude":-96.9945,"frs_id":"110035090843.0","facility_name":"Winchester Power Park","state":"TX","state_name":"Texas","region":"West South Central","region_group":"South","year":2018,"emissions_mt":19172},{"facility_id":"1000544","latitude":30.1603,"longitude":-81.5164,"frs_id":"110043804808.0","facility_name":"Greenland Energy Center","state":"FL","state_name":"Florida","region":"South Atlantic","region_group":"South","year":2018,"emissions_mt":209607},{"facility_id":"1000545","latitude":36.654,"longitude":-120.5797,"frs_id":"110040575981.0","facility_name":"Midway Peaking, LLC","state":"CA","state_name":"California","region":"Pacific","region_group":"West","year":2018,"emissions_mt":30230},{"facility_id":"1000546","latitude":36.6513,"longitude":-120.5833,"frs_id":"110038392682.0","facility_name":"Panoche Energy Center","state":"CA","state_name":"California","region":"Pacific","region_group":"West","year":2018,"emissions_mt":311038},{"facility_id":"1000547","latitude":29.752,"longitude":-94.923,"frs_id":"110015743301.0","facility_name":"Cedar Bayou 4","state":"TX","state_name":"Texas","region":"West South Central","region_group":"South","year":2018,"emissions_mt":513078},{"facility_id":"1000548","latitude":33.359,"longitude":-117.111,"frs_id":"110043815538.0","facility_name":"Orange Grove Project","state":"CA","state_name":"California","region":"Pacific","region_group":"West","year":2018,"emissions_mt":20377},{"facility_id":"1000549","latitude":32.705,"longitude":-117.189,"frs_id":"110024471908.0","facility_name":"North Island","state":"CA","state_name":"California","region":"Pacific","region_group":"West","year":2018,"emissions_mt":17806},{"facility_id":"1000550","latitude":37.6961,"longitude":-78.2848,"frs_id":"110040579424.0","facility_name":"Bear Garden Generating Station","state":"VA","state_name":"Virginia","region":"South Atlantic","region_group":"South","year":2018,"emissions_mt":1525707},{"facility_id":"1000551","latitude":28.0534,"longitude":-81.8059,"frs_id":"110069998649.0","facility_name":"Auburndale Peaker Energy Center","state":"FL","state_name":"Florida","region":"South Atlantic","region_group":"South","year":2018,"emissions_mt":1511},{"facility_id":"1000552","latitude":36.9161,"longitude":-82.3381,"frs_id":"110041686271.0","facility_name":"Virginia City Hybrid Energy Center","state":"VA","state_name":"Virginia","region":"South Atlantic","region_group":"South","year":2018,"emissions_mt":2626452},{"facility_id":"1000555","latitude":40.6529,"longitude":-74.0916,"frs_id":"110043803685.0","facility_name":"Bayonne Energy Center","state":"NJ","state_name":"New Jersey","region":"Middle Atlantic","region_group":"Northeast","year":2018,"emissions_mt":393009},{"facility_id":"1000558","latitude":38.322,"longitude":-104.533,"frs_id":"110055506527.0","facility_name":"Pueblo Airport Generating Station","state":"CO","state_name":"Colorado","region":"Mountain","region_group":"West","year":2018,"emissions_mt":600635},{"facility_id":"1000559","latitude":40.0979,"longitude":-104.7745,"frs_id":"110039685775.0","facility_name":"J.M. Shafer Generating Station","state":"CO","state_name":"Colorado","region":"Mountain","region_group":"West","year":2018,"emissions_mt":335321},{"facility_id":"1000562","latitude":44.3901,"longitude":-105.4591,"frs_id":"110039589585.0","facility_name":"Dry Fork Station","state":"WY","state_name":"Wyoming","region":"Mountain","region_group":"West","year":2018,"emissions_mt":3067896},{"facility_id":"1000563","latitude":48.2104,"longitude":-104.3919,"frs_id":"110041624187.0","facility_name":"Culbertson Station","state":"MT","state_name":"Montana","region":"Mountain","region_group":"West","year":2018,"emissions_mt":59544},{"facility_id":"1000564","latitude":37.1006,"longitude":-76.39072,"frs_id":"110001888994.0","facility_name":"HAMPTON\/NASA STEAM PLANT","state":"VA","state_name":"Virginia","region":"South Atlantic","region_group":"South","year":2018,"emissions_mt":23138},{"facility_id":"1000565","latitude":35.1706,"longitude":-81.4161,"frs_id":"110039620292.0","facility_name":"Cleveland County Generating Facility","state":"NC","state_name":"North Carolina","region":"South Atlantic","region_group":"South","year":2018,"emissions_mt":435044},{"facility_id":"1000566","latitude":33.8581,"longitude":-117.8616,"frs_id":"110040486364.0","facility_name":"Canyon Power Plant","state":"CA","state_name":"California","region":"Pacific","region_group":"West","year":2018,"emissions_mt":105039},{"facility_id":"1000567","latitude":40.76,"longitude":-73.75,"frs_id":"110033146165.0","facility_name":"Ravenswood Steam Plant","state":"NY","state_name":"New York","region":"Middle Atlantic","region_group":"Northeast","year":2018,"emissions_mt":11087},{"facility_id":"1000570","latitude":29.3078,"longitude":-98.3244,"frs_id":"110000464916.0","facility_name":"O W Sommers","state":"TX","state_name":"Texas","region":"West South Central","region_group":"South","year":2018,"emissions_mt":581473},{"facility_id":"1000580","latitude":42.336667,"longitude":-71.108333,"frs_id":"110000881733.0","facility_name":"MEDICAL AREA TOTAL ENERGY PLANT","state":"MA","state_name":"Massachusetts","region":"New England","region_group":"Northeast","year":2018,"emissions_mt":262870},{"facility_id":"1000581","latitude":39.2825,"longitude":-96.1153,"frs_id":"110006011680.0","facility_name":"WESTAR ENERGY, INC.","state":"KS","state_name":"Kansas","region":"West North Central","region_group":"Midwest","year":2018,"emissions_mt":10010016},{"facility_id":"1000582","latitude":39.0072,"longitude":-95.2692,"frs_id":"110000445180.0","facility_name":"Westar Energy","state":"KS","state_name":"Kansas","region":"West North Central","region_group":"Midwest","year":2018,"emissions_mt":3015296},{"facility_id":"1000583","latitude":38.4464,"longitude":-96.0651,"frs_id":"110030490779.0","facility_name":"WESTAR ENERGY, INC.","state":"KS","state_name":"Kansas","region":"West North Central","region_group":"Midwest","year":2018,"emissions_mt":343376},{"facility_id":"1000584","latitude":38.0906,"longitude":-97.8747,"frs_id":"110001964740.0","facility_name":"WESTAR ENERGY, INC","state":"KS","state_name":"Kansas","region":"West North Central","region_group":"Midwest","year":2018,"emissions_mt":10551},{"facility_id":"1000585","latitude":37.5956,"longitude":-97.4131,"frs_id":"110002128518.0","facility_name":"WESTAR ENERGY, INC","state":"KS","state_name":"Kansas","region":"West North Central","region_group":"Midwest","year":2018,"emissions_mt":112258},{"facility_id":"1000586","latitude":35.7422,"longitude":-97.655,"frs_id":"110007168732.0","facility_name":"WESTAR ENERGY, INC","state":"OK","state_name":"Oklahoma","region":"West South Central","region_group":"South","year":2018,"emissions_mt":130923},{"facility_id":"1000591","latitude":44.973474,"longitude":-93.267695,"frs_id":"110001850104.0","facility_name":"NRG ENERGY CENTER MINNEAPOLIS","state":"MN","state_name":"Minnesota","region":"West North Central","region_group":"Midwest","year":2018,"emissions_mt":100397},{"facility_id":"1000594","latitude":43.0722,"longitude":-86.2342,"frs_id":"110001188116.0","facility_name":"Greenleaf Energy Unit 1 LLC","state":"CA","state_name":"California","region":"Pacific","region_group":"West","year":2018,"emissions_mt":28839},{"facility_id":"1000595","latitude":36.23228,"longitude":-115.12297,"frs_id":"110006175575.0","facility_name":"LAS VEGAS GENERATING STATION","state":"NV","state_name":"Nevada","region":"Mountain","region_group":"West","year":2018,"emissions_mt":159374},{"facility_id":"1000596","latitude":39.142861,"longitude":-121.636778,"frs_id":"110000524969.0","facility_name":"Greenleaf Energy Unit 2 LLC","state":"CA","state_name":"California","region":"Pacific","region_group":"West","year":2018,"emissions_mt":116758},{"facility_id":"1000597","latitude":36.2257,"longitude":-121.1279,"frs_id":"110000529376.0","facility_name":"Calpine King City Cogen, LLC","state":"CA","state_name":"California","region":"Pacific","region_group":"West","year":2018,"emissions_mt":22016},{"facility_id":"1000644","latitude":39.4422,"longitude":-76.2208,"frs_id":"110000499559.0","facility_name":"Perryman","state":"MD","state_name":"Maryland","region":"South Atlantic","region_group":"South","year":2018,"emissions_mt":179891},{"facility_id":"1000645","latitude":39.2369,"longitude":-76.5133,"frs_id":"110043089635.0","facility_name":"Riverside","state":"MD","state_name":"Maryland","region":"South Atlantic","region_group":"South","year":2018,"emissions_mt":5405},{"facility_id":"1000646","latitude":39.2719,"longitude":-76.6186,"frs_id":"110070081764.0","facility_name":"Westport","state":"MD","state_name":"Maryland","region":"South Atlantic","region_group":"South","year":2018,"emissions_mt":26739},{"facility_id":"1000649","latitude":38.5444,"longitude":-76.6861,"frs_id":"110005974286.0","facility_name":"Chalk Point","state":"MD","state_name":"Maryland","region":"South Atlantic","region_group":"South","year":2018,"emissions_mt":1466728},{"facility_id":"1000650","latitude":39.2086,"longitude":-77.4644,"frs_id":"110000339303.0","facility_name":"Dickerson","state":"MD","state_name":"Maryland","region":"South Atlantic","region_group":"South","year":2018,"emissions_mt":359724},{"facility_id":"1000651","latitude":38.3592,"longitude":-76.9767,"frs_id":"110000339143.0","facility_name":"Morgantown","state":"MD","state_name":"Maryland","region":"South Atlantic","region_group":"South","year":2018,"emissions_mt":2416886},{"facility_id":"1000653","latitude":42.3917,"longitude":-71.0667,"frs_id":"110000310841.0","facility_name":"Mystic","state":"MA","state_name":"Massachusetts","region":"New England","region_group":"Northeast","year":2018,"emissions_mt":1941333},{"facility_id":"1000655","latitude":42.1364,"longitude":-71.4478,"frs_id":"110001949508.0","facility_name":"Medway Station","state":"MA","state_name":"Massachusetts","region":"New England","region_group":"Northeast","year":2018,"emissions_mt":7968},{"facility_id":"1000657","latitude":42.3633,"longitude":-71.0792,"frs_id":"110000310976.0","facility_name":"Kendall Green Energy","state":"MA","state_name":"Massachusetts","region":"New England","region_group":"Northeast","year":2018,"emissions_mt":618202},{"facility_id":"1000658","latitude":41.7694,"longitude":-70.5097,"frs_id":"110000311485.0","facility_name":"Canal Station","state":"MA","state_name":"Massachusetts","region":"New England","region_group":"Northeast","year":2018,"emissions_mt":117803},{"facility_id":"1000663","latitude":42.0956,"longitude":-72.5958,"frs_id":"110045630956.0","facility_name":"West Springfield","state":"MA","state_name":"Massachusetts","region":"New England","region_group":"Northeast","year":2018,"emissions_mt":13411},{"facility_id":"1000665","latitude":42.235,"longitude":-70.9672,"frs_id":"110002011625.0","facility_name":"Potter","state":"MA","state_name":"Massachusetts","region":"New England","region_group":"Northeast","year":2018,"emissions_mt":27345},{"facility_id":"1000667","latitude":41.8653,"longitude":-71.1061,"frs_id":"110000312064.0","facility_name":"Cleary Flood","state":"MA","state_name":"Massachusetts","region":"New England","region_group":"Northeast","year":2018,"emissions_mt":51357},{"facility_id":"1000669","latitude":30.2091,"longitude":-97.6139,"frs_id":"110008975804.0","facility_name":"Sand Hill Energy Center","state":"TX","state_name":"Texas","region":"West South Central","region_group":"South","year":2018,"emissions_mt":803012},{"facility_id":"1000670","latitude":42.9103,"longitude":-86.2036,"frs_id":"110000411108.0","facility_name":"J H Campbell","state":"MI","state_name":"Michigan","region":"East North Central","region_group":"Midwest","year":2018,"emissions_mt":7737164},{"facility_id":"1000674","latitude":42.2947,"longitude":-83.1019,"frs_id":"110022939212.0","facility_name":"Delray","state":"MI","state_name":"Michigan","region":"East North Central","region_group":"Midwest","year":2018,"emissions_mt":10490},{"facility_id":"1000676","latitude":41.8917,"longitude":-83.3461,"frs_id":"110000405927.0","facility_name":"Monroe","state":"MI","state_name":"Michigan","region":"East North Central","region_group":"Midwest","year":2018,"emissions_mt":16400875},{"facility_id":"1000677","latitude":42.2733,"longitude":-83.1131,"frs_id":"110000406917.0","facility_name":"River Rouge","state":"MI","state_name":"Michigan","region":"East North Central","region_group":"Midwest","year":2018,"emissions_mt":830059},{"facility_id":"1000678","latitude":42.7642,"longitude":-82.4719,"frs_id":"110070081766.0","facility_name":"St. Clair","state":"MI","state_name":"Michigan","region":"East North Central","region_group":"Midwest","year":2018,"emissions_mt":4758313},{"facility_id":"1000679","latitude":42.1236,"longitude":-83.1811,"frs_id":"110000406267.0","facility_name":"Trenton Channel","state":"MI","state_name":"Michigan","region":"East North Central","region_group":"Midwest","year":2018,"emissions_mt":1211044},{"facility_id":"1000680","latitude":46.5789,"longitude":-87.395,"frs_id":"110056964030.0","facility_name":"Presque Isle","state":"MI","state_name":"Michigan","region":"East North Central","region_group":"Midwest","year":2018,"emissions_mt":1705795},{"facility_id":"1000681","latitude":42.7956,"longitude":-86.1133,"frs_id":"110000541708.0","facility_name":"James De Young","state":"MI","state_name":"Michigan","region":"East North Central","region_group":"Midwest","year":2018,"emissions_mt":536},{"facility_id":"1000682","latitude":42.7183,"longitude":-84.5586,"frs_id":"110000408531.0","facility_name":"Eckert Station","state":"MI","state_name":"Michigan","region":"East North Central","region_group":"Midwest","year":2018,"emissions_mt":764149},{"facility_id":"1000683","latitude":42.6919,"longitude":-84.6572,"frs_id":"110040958425.0","facility_name":"Erickson","state":"MI","state_name":"Michigan","region":"East North Central","region_group":"Midwest","year":2018,"emissions_mt":914780},{"facility_id":"1000684","latitude":46.5314,"longitude":-87.3917,"frs_id":"110017426962.0","facility_name":"Shiras","state":"MI","state_name":"Michigan","region":"East North Central","region_group":"Midwest","year":2018,"emissions_mt":173212},{"facility_id":"1000686","latitude":47.5306,"longitude":-92.1619,"frs_id":"110007372100.0","facility_name":"Laskin Energy Center","state":"MN","state_name":"Minnesota","region":"West North Central","region_group":"Midwest","year":2018,"emissions_mt":11478},{"facility_id":"1000687","latitude":47.2603,"longitude":-93.6531,"frs_id":"110041028492.0","facility_name":"Boswell Energy Center","state":"MN","state_name":"Minnesota","region":"West North Central","region_group":"Midwest","year":2018,"emissions_mt":7818404},{"facility_id":"1000688","latitude":46.7356,"longitude":-92.1531,"frs_id":"110007601540.0","facility_name":"Hibbard Energy Center","state":"MN","state_name":"Minnesota","region":"West North Central","region_group":"Midwest","year":2018,"emissions_mt":21656},{"facility_id":"1000689","latitude":44.8108,"longitude":-93.2501,"frs_id":"110017409320.0","facility_name":"Black Dog","state":"MN","state_name":"Minnesota","region":"West North Central","region_group":"Midwest","year":2018,"emissions_mt":440183},{"facility_id":"1000690","latitude":44.9331,"longitude":-93.1075,"frs_id":"110000424032.0","facility_name":"High Bridge","state":"MN","state_name":"Minnesota","region":"West North Central","region_group":"Midwest","year":2018,"emissions_mt":930917},{"facility_id":"1000691","latitude":45.03,"longitude":-92.7786,"frs_id":"110000423612.0","facility_name":"Allen S King","state":"MN","state_name":"Minnesota","region":"West North Central","region_group":"Midwest","year":2018,"emissions_mt":2705407},{"facility_id":"1000693","latitude":45.0203,"longitude":-93.2753,"frs_id":"110000425656.0","facility_name":"Riverside (1927)","state":"MN","state_name":"Minnesota","region":"West North Central","region_group":"Midwest","year":2018,"emissions_mt":999751},{"facility_id":"1000694","latitude":46.29,"longitude":-96.0428,"frs_id":"110000427422.0","facility_name":"Hoot Lake","state":"MN","state_name":"Minnesota","region":"West North Central","region_group":"Midwest","year":2018,"emissions_mt":619662},{"facility_id":"1000695","latitude":44.0281,"longitude":-92.4597,"frs_id":"110000426469.0","facility_name":"Silver Lake","state":"MN","state_name":"Minnesota","region":"West North Central","region_group":"Midwest","year":2018,"emissions_mt":26489},{"facility_id":"1000696","latitude":30.34,"longitude":-88.492,"frs_id":"110041067234.0","facility_name":"Chevron Cogenerating Station","state":"MS","state_name":"Mississippi","region":"East South Central","region_group":"South","year":2018,"emissions_mt":788201},{"facility_id":"1000697","latitude":32.2925,"longitude":-88.7461,"frs_id":"110010569795.0","facility_name":"Sweatt Electric Generating Plant","state":"MS","state_name":"Mississippi","region":"East South Central","region_group":"South","year":2018,"emissions_mt":4882},{"facility_id":"1000698","latitude":30.4408,"longitude":-89.0265,"frs_id":"110000590851.0","facility_name":"Watson Electric Generating Plant","state":"MS","state_name":"Mississippi","region":"East South Central","region_group":"South","year":2018,"emissions_mt":832922},{"facility_id":"1000699","latitude":32.2831,"longitude":-90.9306,"frs_id":"110000376548.0","facility_name":"Baxter Wilson","state":"MS","state_name":"Mississippi","region":"East South Central","region_group":"South","year":2018,"emissions_mt":540020},{"facility_id":"1000702","latitude":32.3564,"longitude":-90.2125,"frs_id":"110070081767.0","facility_name":"Rex Brown","state":"MS","state_name":"Mississippi","region":"East South Central","region_group":"South","year":2018,"emissions_mt":138574},{"facility_id":"1000703","latitude":31.5289,"longitude":-89.2992,"frs_id":"110008505448.0","facility_name":"Moselle Generating Plant","state":"MS","state_name":"Mississippi","region":"East South Central","region_group":"South","year":2018,"emissions_mt":488585},{"facility_id":"1000705","latitude":39.1306,"longitude":-94.4778,"frs_id":"110017410942.0","facility_name":"Hawthorn","state":"MO","state_name":"Missouri","region":"West North Central","region_group":"Midwest","year":2018,"emissions_mt":2620074},{"facility_id":"1000706","latitude":39.1778,"longitude":-94.1861,"frs_id":"110017982593.0","facility_name":"Sibley","state":"MO","state_name":"Missouri","region":"West North Central","region_group":"Midwest","year":2018,"emissions_mt":967669},{"facility_id":"1000707","latitude":38.4017,"longitude":-90.3358,"frs_id":"110001958515.0","facility_name":"Meramec","state":"MO","state_name":"Missouri","region":"West North Central","region_group":"Midwest","year":2018,"emissions_mt":1445686},{"facility_id":"1000709","latitude":38.9658,"longitude":-92.3175,"frs_id":"110018010392.0","facility_name":"Columbia","state":"MO","state_name":"Missouri","region":"West North Central","region_group":"Midwest","year":2018,"emissions_mt":18414},{"facility_id":"1000713","latitude":37.1086,"longitude":-93.2592,"frs_id":"110000445037.0","facility_name":"James River","state":"MO","state_name":"Missouri","region":"West North Central","region_group":"Midwest","year":2018,"emissions_mt":92282},{"facility_id":"1000715","latitude":36.5147,"longitude":-89.5617,"frs_id":"110000606336.0","facility_name":"New Madrid Power Plant","state":"MO","state_name":"Missouri","region":"West North Central","region_group":"Midwest","year":2018,"emissions_mt":6904703},{"facility_id":"1000716","latitude":39.5531,"longitude":-92.6392,"frs_id":"110000444243.0","facility_name":"Thomas Hill Energy Center","state":"MO","state_name":"Missouri","region":"West North Central","region_group":"Midwest","year":2018,"emissions_mt":7667502},{"facility_id":"1000722","latitude":41.4275,"longitude":-96.4619,"frs_id":"110040983308.0","facility_name":"Lon D Wright Power Plant","state":"NE","state_name":"Nebraska","region":"West North Central","region_group":"Midwest","year":2018,"emissions_mt":545113},{"facility_id":"1000725","latitude":41.1706,"longitude":-95.9692,"frs_id":"110001512612.0","facility_name":"Sarpy County Station","state":"NE","state_name":"Nebraska","region":"West North Central","region_group":"Midwest","year":2018,"emissions_mt":69019},{"facility_id":"1000726","latitude":36.0875,"longitude":-115.0507,"frs_id":"110004307027.0","facility_name":"Clark","state":"NV","state_name":"Nevada","region":"Mountain","region_group":"West","year":2018,"emissions_mt":489775},{"facility_id":"1000729","latitude":43.1411,"longitude":-71.4692,"frs_id":"110000313802.0","facility_name":"Merrimack","state":"NH","state_name":"New Hampshire","region":"New England","region_group":"Northeast","year":2018,"emissions_mt":661694},{"facility_id":"1000730","latitude":43.0978,"longitude":-70.7842,"frs_id":"110000602991.0","facility_name":"Schiller","state":"NH","state_name":"New Hampshire","region":"New England","region_group":"Northeast","year":2018,"emissions_mt":146695},{"facility_id":"1000732","latitude":39.29,"longitude":-74.6339,"frs_id":"110070081770.0","facility_name":"B L England","state":"NJ","state_name":"New Jersey","region":"Middle Atlantic","region_group":"Northeast","year":2018,"emissions_mt":16140},{"facility_id":"1000733","latitude":39.4547,"longitude":-75.2011,"frs_id":"110010353508.0","facility_name":"Carlls Corner Energy Center","state":"NJ","state_name":"New Jersey","region":"Middle Atlantic","region_group":"Northeast","year":2018,"emissions_mt":15127},{"facility_id":"1000739","latitude":35.5438,"longitude":-89.198,"frs_id":"110043786613.0","facility_name":"Brownsville CT","state":"TN","state_name":"Tennessee","region":"East South Central","region_group":"South","year":2018,"emissions_mt":361887},{"facility_id":"1000741","latitude":40.5661,"longitude":-75.165,"frs_id":"110000734359.0","facility_name":"Gilbert Generating Station","state":"NJ","state_name":"New Jersey","region":"Middle Atlantic","region_group":"Northeast","year":2018,"emissions_mt":9166},{"facility_id":"1000742","latitude":40.8375,"longitude":-74.0244,"frs_id":"110013716826.0","facility_name":"Bergen","state":"NJ","state_name":"New Jersey","region":"Middle Atlantic","region_group":"Northeast","year":2018,"emissions_mt":1660532},{"facility_id":"1000745","latitude":40.7375,"longitude":-74.1211,"frs_id":"110001530898.0","facility_name":"Essex","state":"NJ","state_name":"New Jersey","region":"Middle Atlantic","region_group":"Northeast","year":2018,"emissions_mt":913},{"facility_id":"1000747","latitude":40.7375,"longitude":-74.1,"frs_id":"110006367528.0","facility_name":"Kearny Generating Station","state":"NJ","state_name":"New Jersey","region":"Middle Atlantic","region_group":"Northeast","year":2018,"emissions_mt":174210},{"facility_id":"1000751","latitude":39.4889,"longitude":-75.0347,"frs_id":"110000603197.0","facility_name":"Howard M Down","state":"NJ","state_name":"New Jersey","region":"Middle Atlantic","region_group":"Northeast","year":2018,"emissions_mt":43763},{"facility_id":"1000752","latitude":31.8047,"longitude":-106.5472,"frs_id":"110001547238.0","facility_name":"Rio Grande","state":"NM","state_name":"New Mexico","region":"Mountain","region_group":"West","year":2018,"emissions_mt":418617},{"facility_id":"1000753","latitude":32.7131,"longitude":-103.31,"frs_id":"110006091059.0","facility_name":"Maddox","state":"NM","state_name":"New Mexico","region":"Mountain","region_group":"West","year":2018,"emissions_mt":342811},{"facility_id":"1000754","latitude":35.1716,"longitude":-106.6019,"frs_id":"110022325170.0","facility_name":"Reeves Generating Station","state":"NM","state_name":"New Mexico","region":"Mountain","region_group":"West","year":2018,"emissions_mt":132917},{"facility_id":"1000755","latitude":32.7131,"longitude":-103.3533,"frs_id":"110002468375.0","facility_name":"Cunningham","state":"NM","state_name":"New Mexico","region":"Mountain","region_group":"West","year":2018,"emissions_mt":808853},{"facility_id":"1000758","latitude":41.573,"longitude":-73.9646,"frs_id":"110051571228.0","facility_name":"Danskammer Generating Station","state":"NY","state_name":"New York","region":"Middle Atlantic","region_group":"Northeast","year":2018,"emissions_mt":23774},{"facility_id":"1000759","latitude":40.5915,"longitude":-74.2027,"frs_id":"110000866386.0","facility_name":"Arthur Kill","state":"NY","state_name":"New York","region":"Middle Atlantic","region_group":"Northeast","year":2018,"emissions_mt":623212},{"facility_id":"1000761","latitude":40.7281,"longitude":-73.9742,"frs_id":"110000322623.0","facility_name":"East River","state":"NY","state_name":"New York","region":"Middle Atlantic","region_group":"Northeast","year":2018,"emissions_mt":2003208},{"facility_id":"1000763","latitude":40.6486,"longitude":-74.0209,"frs_id":"110008054265.0","facility_name":"Narrows Generating Station","state":"NY","state_name":"New York","region":"Middle Atlantic","region_group":"Northeast","year":2018,"emissions_mt":66469},{"facility_id":"1000764","latitude":40.7585,"longitude":-73.9451,"frs_id":"110033146165.0","facility_name":"Ravenswood Generating Station","state":"NY","state_name":"New York","region":"Middle Atlantic","region_group":"Northeast","year":2018,"emissions_mt":1806472},{"facility_id":"1000766","latitude":40.7711,"longitude":-73.9911,"frs_id":"110019296509.0","facility_name":"59th Street","state":"NY","state_name":"New York","region":"Middle Atlantic","region_group":"Northeast","year":2018,"emissions_mt":260406},{"facility_id":"1000767","latitude":40.768,"longitude":-73.9515,"frs_id":"110019296527.0","facility_name":"74th Street","state":"NY","state_name":"New York","region":"Middle Atlantic","region_group":"Northeast","year":2018,"emissions_mt":270795},{"facility_id":"1000768","latitude":40.6169,"longitude":-73.6486,"frs_id":"110000582389.0","facility_name":"E F Barrett","state":"NY","state_name":"New York","region":"Middle Atlantic","region_group":"Northeast","year":2018,"emissions_mt":903166},{"facility_id":"1000771","latitude":40.9231,"longitude":-73.3417,"frs_id":"110000582398.0","facility_name":"Northport","state":"NY","state_name":"New York","region":"Middle Atlantic","region_group":"Northeast","year":2018,"emissions_mt":1622225},{"facility_id":"1000774","latitude":42.6789,"longitude":-76.9483,"frs_id":"110000327619.0","facility_name":"Greenidge Generation LLC","state":"NY","state_name":"New York","region":"Middle Atlantic","region_group":"Northeast","year":2018,"emissions_mt":119484},{"facility_id":"1000777","latitude":42.5905,"longitude":-73.7636,"frs_id":"110000324177.0","facility_name":"Bethlehem Energy Center (Albany)","state":"NY","state_name":"New York","region":"Middle Atlantic","region_group":"Northeast","year":2018,"emissions_mt":1921324},{"facility_id":"1000779","latitude":42.49,"longitude":-79.35,"frs_id":"110000326460.0","facility_name":"NRG Dunkirk Power","state":"NY","state_name":"New York","region":"Middle Atlantic","region_group":"Northeast","year":2018,"emissions_mt":545},{"facility_id":"1000780","latitude":41.2044,"longitude":-73.9689,"frs_id":"110000582352.0","facility_name":"Bowline Generating Station","state":"NY","state_name":"New York","region":"Middle Atlantic","region_group":"Northeast","year":2018,"emissions_mt":305849},{"facility_id":"1000781","latitude":40.7586,"longitude":-73.9592,"frs_id":"110019644679.0","facility_name":"CON ED-EAST 60TH STREET STEAM PLANT","state":"NY","state_name":"New York","region":"Middle Atlantic","region_group":"Northeast","year":2018,"emissions_mt":112792},{"facility_id":"1000782","latitude":39.7078,"longitude":-79.9588,"frs_id":"110040576267.0","facility_name":"Longview Power","state":"WV","state_name":"West Virginia","region":"South Atlantic","region_group":"South","year":2018,"emissions_mt":4580629},{"facility_id":"1000784","latitude":42.0917,"longitude":-79.2417,"frs_id":"110000328235.0","facility_name":"S A Carlson","state":"NY","state_name":"New York","region":"Middle Atlantic","region_group":"Northeast","year":2018,"emissions_mt":66339},{"facility_id":"1000786","latitude":35.3775,"longitude":-78.0875,"frs_id":"110000496552.0","facility_name":"H F Lee Steam Electric Plant","state":"NC","state_name":"North Carolina","region":"South Atlantic","region_group":"South","year":2018,"emissions_mt":3051649},{"facility_id":"1000788","latitude":45.7931,"longitude":-119.3117,"frs_id":"110012534542.0","facility_name":"Hermiston Power, LLC","state":"OR","state_name":"Oregon","region":"Pacific","region_group":"West","year":2018,"emissions_mt":1439073},{"facility_id":"1000790","latitude":44.5397,"longitude":-88.0083,"frs_id":"110000421534.0","facility_name":"Pulliam","state":"WI","state_name":"Wisonsin","region":"East North Central","region_group":"Midwest","year":2018,"emissions_mt":657293},{"facility_id":"1000791","latitude":33.0917,"longitude":-82.9803,"frs_id":"110007390796.0","facility_name":"Washington County Power, LLC","state":"GA","state_name":"Georgia","region":"South Atlantic","region_group":"South","year":2018,"emissions_mt":67717},{"facility_id":"1000792","latitude":39.2242,"longitude":-88.7594,"frs_id":"110018128417.0","facility_name":"Holland Energy Facility","state":"IL","state_name":"Illinois","region":"East North Central","region_group":"Midwest","year":2018,"emissions_mt":363666},{"facility_id":"1000794","latitude":35.8619,"longitude":-90.0253,"frs_id":"110043716565.0","facility_name":"Dell Power Plant","state":"AR","state_name":"Arkansas","region":"West South Central","region_group":"South","year":2018,"emissions_mt":863459},{"facility_id":"1000795","latitude":32.2983,"longitude":-107.78,"frs_id":"110012245784.0","facility_name":"Luna Energy Facility","state":"NM","state_name":"New Mexico","region":"Mountain","region_group":"West","year":2018,"emissions_mt":1126887},{"facility_id":"1000796","latitude":32.5733,"longitude":-116.9153,"frs_id":"110040565689.0","facility_name":"Otay Mesa Energy Center, LLC","state":"CA","state_name":"California","region":"Pacific","region_group":"West","year":2018,"emissions_mt":201346},{"facility_id":"1000798","latitude":29.4731,"longitude":-95.6244,"frs_id":"110022938419.0","facility_name":"Brazos Valley Energy, LP","state":"TX","state_name":"Texas","region":"West South Central","region_group":"South","year":2018,"emissions_mt":1125016},{"facility_id":"1000799","latitude":39.3922,"longitude":-87.5103,"frs_id":"110008978151.0","facility_name":"Sugar Creek Generating Station","state":"IN","state_name":"Indiana","region":"East North Central","region_group":"Midwest","year":2018,"emissions_mt":1174870},{"facility_id":"1000800","latitude":33.2961,"longitude":-92.5933,"frs_id":"110010063858.0","facility_name":"Union Power Station","state":"AR","state_name":"Arkansas","region":"West South Central","region_group":"South","year":2018,"emissions_mt":3634876},{"facility_id":"1000801","latitude":34.7094,"longitude":-84.9182,"frs_id":"110002374216.0","facility_name":"Thomas A. Smith Energy Facility","state":"GA","state_name":"Georgia","region":"South Atlantic","region_group":"South","year":2018,"emissions_mt":2153382},{"facility_id":"1000805","latitude":42.4776,"longitude":-87.895,"frs_id":"110021292260.0","facility_name":"Zion Energy Center","state":"IL","state_name":"Illinois","region":"East North Central","region_group":"Midwest","year":2018,"emissions_mt":321473},{"facility_id":"1000806","latitude":37.2169,"longitude":-121.7439,"frs_id":"110023012648.0","facility_name":"Metcalf Energy Center","state":"CA","state_name":"California","region":"Pacific","region_group":"West","year":2018,"emissions_mt":823964},{"facility_id":"1000808","latitude":39.0839,"longitude":-82.3328,"frs_id":"110013300052.0","facility_name":"Rolling Hills Generating LLC","state":"OH","state_name":"Ohio","region":"East North Central","region_group":"Midwest","year":2018,"emissions_mt":470988},{"facility_id":"1000809","latitude":43.1864,"longitude":-84.8429,"frs_id":"110021353505.0","facility_name":"Renaissance Power","state":"MI","state_name":"Michigan","region":"East North Central","region_group":"Midwest","year":2018,"emissions_mt":546515},{"facility_id":"1000811","latitude":32.2792,"longitude":-81.2842,"frs_id":"110012143493.0","facility_name":"Effingham County Power, LLC","state":"GA","state_name":"Georgia","region":"South Atlantic","region_group":"South","year":2018,"emissions_mt":722756},{"facility_id":"1000812","latitude":33.5883,"longitude":-85.9731,"frs_id":"110013812534.0","facility_name":"Calhoun Power Company, LLC","state":"AL","state_name":"Alabama","region":"East South Central","region_group":"South","year":2018,"emissions_mt":126645},{"facility_id":"1000813","latitude":33.0,"longitude":-85.9031,"frs_id":"110010068103.0","facility_name":"Hillabee Energy Center","state":"AL","state_name":"Alabama","region":"East South Central","region_group":"South","year":2018,"emissions_mt":1686545},{"facility_id":"1000814","latitude":27.5242,"longitude":-81.9236,"frs_id":"110017411718.0","facility_name":"Vandolah Power Project","state":"FL","state_name":"Florida","region":"South Atlantic","region_group":"South","year":2018,"emissions_mt":663992},{"facility_id":"1000815","latitude":34.2963,"longitude":-92.8683,"frs_id":"110006785540.0","facility_name":"Hot Spring Energy Facility","state":"AR","state_name":"Arkansas","region":"West South Central","region_group":"South","year":2018,"emissions_mt":1315174},{"facility_id":"1000816","latitude":30.3215,"longitude":-91.2392,"frs_id":"110001244724.0","facility_name":"Plaquemine Cogen Facility","state":"LA","state_name":"Louisiana","region":"West South Central","region_group":"South","year":2018,"emissions_mt":2814140},{"facility_id":"1000817","latitude":41.9997,"longitude":-88.2445,"frs_id":"110001229796.0","facility_name":"Elgin Energy Center, LLC","state":"IL","state_name":"Illinois","region":"East North Central","region_group":"Midwest","year":2018,"emissions_mt":145815},{"facility_id":"1000818","latitude":37.8667,"longitude":-78.3813,"frs_id":"110017612074.0","facility_name":"Tenaska Virginia Generating Station","state":"VA","state_name":"Virginia","region":"South Atlantic","region_group":"South","year":2018,"emissions_mt":2205391},{"facility_id":"1000819","latitude":32.6503,"longitude":-86.7386,"frs_id":"110007348441.0","facility_name":"Tenaska Central Alabama Gen Station","state":"AL","state_name":"Alabama","region":"East South Central","region_group":"South","year":2018,"emissions_mt":1769609},{"facility_id":"1000821","latitude":34.8358,"longitude":-89.2017,"frs_id":"110009113486.0","facility_name":"Magnolia Facility","state":"MS","state_name":"Mississippi","region":"East South Central","region_group":"South","year":2018,"emissions_mt":2250118},{"facility_id":"1000822","latitude":33.33,"longitude":-112.84,"frs_id":"110012141609.0","facility_name":"Redhawk Generating Facility","state":"AZ","state_name":"Arizona","region":"Mountain","region_group":"West","year":2018,"emissions_mt":1596868},{"facility_id":"1000823","latitude":42.2383,"longitude":-89.1014,"frs_id":"110005980741.0","facility_name":"Rockford Energy Center II","state":"IL","state_name":"Illinois","region":"East North Central","region_group":"Midwest","year":2018,"emissions_mt":64722},{"facility_id":"1000824","latitude":35.6853,"longitude":-97.2242,"frs_id":"110017422252.0","facility_name":"Redbud Power Plant","state":"OK","state_name":"Oklahoma","region":"West South Central","region_group":"South","year":2018,"emissions_mt":2227624},{"facility_id":"1000825","latitude":29.7153,"longitude":-95.1361,"frs_id":"110017743254.0","facility_name":"Deer Park Energy Center","state":"TX","state_name":"Texas","region":"West South Central","region_group":"South","year":2018,"emissions_mt":3880537},{"facility_id":"1000826","latitude":32.7056,"longitude":-92.0697,"frs_id":"110012218064.0","facility_name":"Ouachita Plant","state":"LA","state_name":"Louisiana","region":"West South Central","region_group":"South","year":2018,"emissions_mt":1477677},{"facility_id":"1000827","latitude":44.2853,"longitude":-105.3841,"frs_id":"110000600341.0","facility_name":"Neil Simpson II (CT2)","state":"WY","state_name":"Wyoming","region":"Mountain","region_group":"West","year":2018,"emissions_mt":6566},{"facility_id":"1000828","latitude":34.2824,"longitude":-77.9864,"frs_id":"110000350174.0","facility_name":"L V Sutton Steam Electric Plant","state":"NC","state_name":"North Carolina","region":"South Atlantic","region_group":"South","year":2018,"emissions_mt":1479575},{"facility_id":"1000830","latitude":35.1897,"longitude":-81.0122,"frs_id":"110000348008.0","facility_name":"G G Allen","state":"NC","state_name":"North Carolina","region":"South Atlantic","region_group":"South","year":2018,"emissions_mt":875331},{"facility_id":"1000831","latitude":35.7133,"longitude":-80.3767,"frs_id":"110001978334.0","facility_name":"Buck","state":"NC","state_name":"North Carolina","region":"South Atlantic","region_group":"South","year":2018,"emissions_mt":1953656},{"facility_id":"1000832","latitude":35.22,"longitude":-81.7594,"frs_id":"110006424404.0","facility_name":"Cliffside","state":"NC","state_name":"North Carolina","region":"South Atlantic","region_group":"South","year":2018,"emissions_mt":4903203},{"facility_id":"1000833","latitude":36.4862,"longitude":-79.7208,"frs_id":"110070081773.0","facility_name":"Dan River","state":"NC","state_name":"North Carolina","region":"South Atlantic","region_group":"South","year":2018,"emissions_mt":1925980},{"facility_id":"1000834","latitude":35.5975,"longitude":-80.9658,"frs_id":"110000351397.0","facility_name":"Marshall","state":"NC","state_name":"North Carolina","region":"South Atlantic","region_group":"South","year":2018,"emissions_mt":7959694},{"facility_id":"1000836","latitude":47.2819,"longitude":-101.3194,"frs_id":"110000595099.0","facility_name":"Leland Olds","state":"ND","state_name":"North Dakota","region":"West North Central","region_group":"Midwest","year":2018,"emissions_mt":3768821},{"facility_id":"1000837","latitude":47.0664,"longitude":-101.2139,"frs_id":"110000428387.0","facility_name":"Milton R Young","state":"ND","state_name":"North Dakota","region":"West North Central","region_group":"Midwest","year":2018,"emissions_mt":5518135},{"facility_id":"1000839","latitude":40.2522,"longitude":-80.6486,"frs_id":"110000605426.0","facility_name":"Cardinal","state":"OH","state_name":"Ohio","region":"East North Central","region_group":"Midwest","year":2018,"emissions_mt":9479141},{"facility_id":"1000841","latitude":39.1131,"longitude":-84.8031,"frs_id":"110000823379.0","facility_name":"Miami Fort Generating Station","state":"OH","state_name":"Ohio","region":"East North Central","region_group":"Midwest","year":2018,"emissions_mt":4984332},{"facility_id":"1000843","latitude":41.5042,"longitude":-82.05,"frs_id":"110000385173.0","facility_name":"Avon Lake Power Plant","state":"OH","state_name":"Ohio","region":"East North Central","region_group":"Midwest","year":2018,"emissions_mt":968678},{"facility_id":"1000845","latitude":40.1842,"longitude":-81.8811,"frs_id":"110000605417.0","facility_name":"Conesville","state":"OH","state_name":"Ohio","region":"East North Central","region_group":"Midwest","year":2018,"emissions_mt":4285148},{"facility_id":"1000849","latitude":38.6361,"longitude":-83.6939,"frs_id":"110000741920.0","facility_name":"J M Stuart","state":"OH","state_name":"Ohio","region":"East North Central","region_group":"Midwest","year":2018,"emissions_mt":2046292},{"facility_id":"1000853","latitude":38.9161,"longitude":-82.1281,"frs_id":"110000395162.0","facility_name":"Kyger Creek","state":"OH","state_name":"Ohio","region":"East North Central","region_group":"Midwest","year":2018,"emissions_mt":5960272},{"facility_id":"1000856","latitude":39.4099,"longitude":-84.5544,"frs_id":"110043782760.0","facility_name":"Hamilton Municipal Power Plant","state":"OH","state_name":"Ohio","region":"East North Central","region_group":"Midwest","year":2018,"emissions_mt":1496},{"facility_id":"1000859","latitude":35.5089,"longitude":-97.1789,"frs_id":"110020515012.0","facility_name":"Horseshoe Lake","state":"OK","state_name":"Oklahoma","region":"West South Central","region_group":"South","year":2018,"emissions_mt":511211},{"facility_id":"1000860","latitude":35.7617,"longitude":-95.2847,"frs_id":"110000860854.0","facility_name":"Muskogee","state":"OK","state_name":"Oklahoma","region":"West South Central","region_group":"South","year":2018,"emissions_mt":4225954},{"facility_id":"1000861","latitude":34.9678,"longitude":-96.7242,"frs_id":"110042090153.0","facility_name":"Seminole (2956)","state":"OK","state_name":"Oklahoma","region":"West South Central","region_group":"South","year":2018,"emissions_mt":868182},{"facility_id":"1000862","latitude":36.4317,"longitude":-95.7008,"frs_id":"110000750740.0","facility_name":"Northeastern","state":"OK","state_name":"Oklahoma","region":"West South Central","region_group":"South","year":2018,"emissions_mt":3832351},{"facility_id":"1000863","latitude":35.1009,"longitude":-98.3524,"frs_id":"110000705041.0","facility_name":"Southwestern","state":"OK","state_name":"Oklahoma","region":"West South Central","region_group":"South","year":2018,"emissions_mt":420186},{"facility_id":"1000864","latitude":36.1125,"longitude":-95.9917,"frs_id":"110001634072.0","facility_name":"Tulsa","state":"OK","state_name":"Oklahoma","region":"West South Central","region_group":"South","year":2018,"emissions_mt":306720},{"facility_id":"1000865","latitude":35.0847,"longitude":-98.23,"frs_id":"110001631440.0","facility_name":"Anadarko","state":"OK","state_name":"Oklahoma","region":"West South Central","region_group":"South","year":2018,"emissions_mt":763013},{"facility_id":"1000866","latitude":36.4375,"longitude":-99.2208,"frs_id":"110007161971.0","facility_name":"Mooreland","state":"OK","state_name":"Oklahoma","region":"West South Central","region_group":"South","year":2018,"emissions_mt":66732},{"facility_id":"1000870","latitude":40.6994,"longitude":-73.9758,"frs_id":"110009461910.0","facility_name":"Brooklyn Navy Yard Cogeneration Project","state":"NY","state_name":"New York","region":"Middle Atlantic","region_group":"Northeast","year":2018,"emissions_mt":1048300},{"facility_id":"1000873","latitude":40.91,"longitude":-75.0789,"frs_id":"110009160978.0","facility_name":"Portland","state":"PA","state_name":"Pennsylvania","region":"Middle Atlantic","region_group":"Northeast","year":2018,"emissions_mt":7707},{"facility_id":"1000877","latitude":40.3842,"longitude":-79.0611,"frs_id":"110000538801.0","facility_name":"Conemaugh","state":"PA","state_name":"Pennsylvania","region":"Middle Atlantic","region_group":"Northeast","year":2018,"emissions_mt":10726755},{"facility_id":"1000879","latitude":41.067,"longitude":-78.3656,"frs_id":"110000603641.0","facility_name":"Shawville Station","state":"PA","state_name":"Pennsylvania","region":"Middle Atlantic","region_group":"Northeast","year":2018,"emissions_mt":345212},{"facility_id":"1000880","latitude":41.8358,"longitude":-79.19,"frs_id":"110000331524.0","facility_name":"Warren","state":"PA","state_name":"Pennsylvania","region":"Middle Atlantic","region_group":"Northeast","year":2018,"emissions_mt":11167},{"facility_id":"1000883","latitude":40.6604,"longitude":-79.3411,"frs_id":"110000538525.0","facility_name":"Keystone","state":"PA","state_name":"Pennsylvania","region":"Middle Atlantic","region_group":"Northeast","year":2018,"emissions_mt":11596708},{"facility_id":"1000884","latitude":40.9378,"longitude":-80.3681,"frs_id":"110070081775.0","facility_name":"New Castle","state":"PA","state_name":"Pennsylvania","region":"Middle Atlantic","region_group":"Northeast","year":2018,"emissions_mt":273192},{"facility_id":"1000886","latitude":40.097,"longitude":-76.6962,"frs_id":"110000601778.0","facility_name":"Brunner Island, LLC","state":"PA","state_name":"Pennsylvania","region":"Middle Atlantic","region_group":"Northeast","year":2018,"emissions_mt":1708174},{"facility_id":"1000892","latitude":40.796,"longitude":-75.107,"frs_id":"110000334656.0","facility_name":"Martins Creek, LLC","state":"PA","state_name":"Pennsylvania","region":"Middle Atlantic","region_group":"Northeast","year":2018,"emissions_mt":517546},{"facility_id":"1000893","latitude":41.0714,"longitude":-76.6672,"frs_id":"110000492324.0","facility_name":"Montour, LLC","state":"PA","state_name":"Pennsylvania","region":"Middle Atlantic","region_group":"Northeast","year":2018,"emissions_mt":2504989},{"facility_id":"1000898","latitude":39.858,"longitude":-75.323,"frs_id":"110000817493.0","facility_name":"Eddystone Generating Station","state":"PA","state_name":"Pennsylvania","region":"Middle Atlantic","region_group":"Northeast","year":2018,"emissions_mt":52294},{"facility_id":"1000900","latitude":39.9425,"longitude":-75.1883,"frs_id":"110000337029.0","facility_name":"Schuylkill","state":"PA","state_name":"Pennsylvania","region":"Middle Atlantic","region_group":"Northeast","year":2018,"emissions_mt":1120},{"facility_id":"1000901","latitude":41.2033,"longitude":-76.0683,"frs_id":"110000335593.0","facility_name":"Hunlock Creek Energy Center","state":"PA","state_name":"Pennsylvania","region":"Middle Atlantic","region_group":"Northeast","year":2018,"emissions_mt":239129},{"facility_id":"1000905","latitude":41.8167,"longitude":-71.4042,"frs_id":"110000312796.0","facility_name":"Manchester Street","state":"RI","state_name":"Rhode Island","region":"New England","region_group":"Northeast","year":2018,"emissions_mt":864546},{"facility_id":"1000906","latitude":34.4017,"longitude":-80.1589,"frs_id":"110043805326.0","facility_name":"H B Robinson \/ Darlington Electric Power Plant","state":"SC","state_name":"South Carolina","region":"South Atlantic","region_group":"South","year":2018,"emissions_mt":188543},{"facility_id":"1000908","latitude":34.6022,"longitude":-82.435,"frs_id":"110070081776.0","facility_name":"W S Lee","state":"SC","state_name":"South Carolina","region":"South Atlantic","region_group":"South","year":2018,"emissions_mt":1404439},{"facility_id":"1000909","latitude":34.0533,"longitude":-81.2178,"frs_id":"110040510284.0","facility_name":"McMeekin","state":"SC","state_name":"South Carolina","region":"South Atlantic","region_group":"South","year":2018,"emissions_mt":311326},{"facility_id":"1000910","latitude":33.435,"longitude":-81.9111,"frs_id":"110000355534.0","facility_name":"Urquhart","state":"SC","state_name":"South Carolina","region":"South Atlantic","region_group":"South","year":2018,"emissions_mt":913335},{"facility_id":"1000911","latitude":33.8264,"longitude":-80.6218,"frs_id":"110015337198.0","facility_name":"Wateree","state":"SC","state_name":"South Carolina","region":"South Atlantic","region_group":"South","year":2018,"emissions_mt":3536112},{"facility_id":"1000916","latitude":35.0742,"longitude":-90.1439,"frs_id":"110000374130.0","facility_name":"Allen","state":"TN","state_name":"Tennessee","region":"East South Central","region_group":"South","year":2018,"emissions_mt":1628052},